"","index","provincia","localidad","direccion","margen","horario","latitud","longitud","empresa","fechaRevision","fechaUltima","ventaPublico","Biodiésel","Gasoleo_A","Gasoleo_A_Plus","Gas_N._Compr","Gas_N._Licuado","Gasóleo_B","Gasóleo_C","GLP","Super_95","Super_98"
"1",1,"ALBACETE","ABENGIBRE","AVENIDA CASTILLA LA MANCHA, 26","Derecho","L-D: 07:00-22:00",39.211417,-1.539167,"Nº 10.935","18/11/2022","17/11/2022","Venta al Público",NA,1.869,NA,NA,NA,1.37,NA,NA,1.749,NA
"2",2,"ALBACETE","ALATOZ","CR CM-332, 46,4","Izquierdo","L-D: 7:00-23:00",39.100389,-1.346083,"REPSOL","18/11/2022","01/11/2022","Venta al Público",NA,2.04,2.3,NA,NA,NA,NA,NA,1.909,2.2
"3",3,"ALBACETE","ALBACETE","AVDA. DE LOS TOREROS, S/N","N","L-D: 07:00-23:00",38.998222,-1.869889,"INPEALSA","18/11/2022","18/11/2022","Venta al Público",NA,1.839,1.889,NA,NA,NA,NA,NA,1.769,NA
"4",4,"ALBACETE","ALBACETE","SECTOR PARCELA T-3 LOCAL52, 14","N","L-S: 06:00-23:00; D: 08:00-23:00",39.009639,-1.878111,"ALCAMPO","18/11/2022","18/11/2022","Venta al Público",NA,1.837,1.874,NA,NA,NA,NA,NA,1.736,1.874
"5",5,"ALBACETE","ALBACETE","AVDA. DE ESPAÑA (PRÓX. A C/ SAN JUAN), S/N","N","L-D: 07:00-23:00",38.982167,-1.853306,"INPEALSA","18/11/2022","18/11/2022","Venta al Público",NA,1.839,NA,NA,NA,NA,NA,NA,1.769,NA
"6",6,"ALBACETE","ALBACETE","CALLE HERMANOS FALCÓ, 2","Derecho","L-D: 06:30-22:30",38.98925,-1.849028,"CEPSA","18/11/2022","17/11/2022","Venta al Público",NA,1.919,1.999,NA,NA,NA,NA,NA,1.799,1.899
"7",7,"ALBACETE","ALBACETE","CARRETERA JAEN KM. 2","Derecho","L-D: 24H",38.994667,-1.871722,"REPSOL","18/11/2022","18/11/2022","Venta al Público",NA,1.899,1.959,NA,NA,NA,NA,NA,1.789,1.939
"8",8,"ALBACETE","ALBACETE","MADRID-CARTAGENA km 248,5","Izquierdo","L-V: 06:00-22:00",38.971778,-1.845306,"LOS ANGELES DE LA MANCHA","18/11/2022","18/11/2022","Venta al Público",NA,1.929,1.989,NA,NA,NA,NA,NA,1.799,1.919
"9",9,"ALBACETE","ALBACETE","CR N-322, 337,8","Izquierdo","L-D: 06:30-22:00",38.925833,-2.031861,"REPSOL","18/11/2022","16/11/2022","Venta al Público",NA,1.949,2.019,NA,NA,NA,NA,NA,1.839,2.069
"10",10,"ALBACETE","ALBACETE","PG CAMPOLLANO-P. 2-CT, S.N.","Derecho","L-V: 06:00-22:00; S: 07:30-15:30; D: 09:00-15:00",39.012583,-1.874972,"REPSOL","18/11/2022","18/11/2022","Venta al Público",NA,1.929,1.979,NA,NA,NA,NA,NA,1.779,1.919
"11",11,"ALBACETE","ALBACETE","AVENIDA MENÉNDEZ PIDAL, 58","N","L-D: 24H",39.003333,-1.864917,"TAMOS","18/11/2022","18/11/2022","Venta al Público",NA,1.859,1.919,NA,NA,NA,NA,NA,1.739,1.859
"12",12,"ALBACETE","ALBACETE","CALLE CTRA. DE JAEN, 79","Izquierdo","L-D: 06:00-23:00",38.988111,-1.883694,"REPSOL","18/11/2022","18/11/2022","Venta al Público",NA,1.909,1.979,NA,NA,NA,NA,NA,1.789,1.959
"13",13,"ALBACETE","ALBACETE","CARRETERA N-322 KM. 359","Derecho","L-V: 07:00-21:00; S-D: 09:00-14:00",39.033139,-1.845083,"REPSOL","18/11/2022","18/11/2022","Venta al Público",NA,1.919,1.979,NA,NA,NA,NA,NA,1.769,1.909
"14",14,"ALBACETE","ALBACETE","CL PASEO DE LA CUBA, 15","Derecho","L-D: 06:00-22:00",38.999722,-1.854556,"REPSOL","18/11/2022","18/11/2022","Venta al Público",NA,1.919,1.979,NA,NA,NA,NA,1.039,1.779,1.899
"15",15,"ALBACETE","ALBACETE","CALLE ALMANSA, 2","Izquierdo","L-D: 06:00-23:00",38.984139,-1.847083,"CEPSA","18/11/2022","18/11/2022","Venta al Público",NA,1.879,1.945,NA,NA,NA,NA,NA,1.774,1.906
"16",16,"ALBACETE","ALBACETE","CARRETERA C-M 332 KM. 2,6","Derecho","L-D: 06:00-23:30",38.998111,-1.831611,"INLOCOR S.L. CEPSA","18/11/2022","18/11/2022","Venta al Público",NA,1.939,1.999,NA,NA,1.639,NA,NA,1.799,1.959
"17",17,"ALBACETE","ALBACETE","AUTOVIA A-30 KM. 239,4","Izquierdo","L-D: 24H",39.060528,-1.933056,"CEPSA","18/11/2022","18/11/2022","Venta al Público",NA,1.889,1.989,NA,NA,NA,NA,NA,1.774,NA
"18",18,"ALBACETE","ALBACETE","AUTOVIA A-31 KM. 69","Izquierdo","L-D: 06:00-22:00",39.031528,-1.891361,"REPSOL","18/11/2022","18/11/2022","Venta al Público",NA,1.919,1.979,NA,NA,NA,NA,1.039,1.779,1.899
"19",19,"ALBACETE","ALBACETE","CARRETERA N-322 KM. 349","Derecho","L-D: 24H",38.970167,-1.919778,"CEPSA","18/11/2022","18/11/2022","Venta al Público",NA,1.909,1.979,NA,NA,NA,NA,NA,1.799,1.859
"20",20,"ALBACETE","ALBACETE","AVENIDA 1º DE MAYO, S/N","N","L-S: 08:00-22:00; D: 09:00-21:00",38.985667,-1.8685,"CARREFOUR","18/11/2022","18/11/2022","Venta al Público",NA,1.899,1.939,NA,NA,NA,NA,NA,1.789,1.939
"21",21,"ALBACETE","ALBACETE","CR N-301, 244","Izquierdo","L-D: 24H",39.027778,-1.892972,"REPSOL","18/11/2022","18/11/2022","Venta al Público",NA,1.919,1.969,NA,NA,NA,NA,NA,1.769,1.909
"22",22,"ALBACETE","ALBACETE","AVENIDA PRIMERA, 94","N","L-V: 06:00-22:00; S: 06:00-14:00",39.016361,-1.893944,"INPEALSA","18/11/2022","18/11/2022","Venta al Público",NA,1.819,1.869,NA,NA,NA,NA,NA,1.769,NA
"23",23,"ALBACETE","ALBACETE","AVENIDA 3ª ESQUINA C/ F Nº3, 3","N","L-D: 24H",39.009417,-1.885694,"FAST & GAS","18/11/2022","18/11/2022","Venta al Público",NA,1.819,NA,NA,NA,NA,NA,NA,1.749,NA
"24",24,"ALBACETE","ALBACETE","CALLE FEDERICO GARCIA LORCA, 5","Izquierdo","L-S: 05:00-23:00",38.997722,-1.846361,"CEPSA","18/11/2022","18/11/2022","CERRADA AL PUBLICO GENERAL",NA,1.94,NA,NA,NA,NA,NA,NA,NA,NA
"25",25,"ALBACETE","ALBACETE","POLIGONO AVDA. 3ª, ESQUINA C/AUTOVIA, 69","Derecho","L-D: 24H",39.018,-1.874333,"ENERCOM CARBURANTES","18/11/2022","18/11/2022","Venta al Público",NA,1.839,1.949,NA,NA,NA,NA,NA,1.769,1.889
"26",26,"ALBACETE","ALBACETE","AVENIDA 1º DE MAYO, S/N","N","L-D: 07:00-23:00",38.985194,-1.866806,"PETROCAMP","18/11/2022","14/11/2022","Venta al Público",NA,1.889,NA,NA,NA,NA,NA,NA,1.779,NA
"27",27,"ALBACETE","ALBACETE","AUTOVIA A-30 KM. 239,4","Derecho","L-D: 07:00-23:00",39.059806,-1.93325,"CEPSA","18/11/2022","18/11/2022","Venta al Público",NA,1.889,1.969,NA,NA,NA,NA,NA,1.769,1.901
"28",28,"ALBACETE","ALBACETE","CARRETERA NACIONAL 301 KM. 256","Derecho","L-V: 06:00-22:00; S: 06:00-14:00; D: 09:00-21:00",38.929389,-1.831639,"INPEALSA","18/11/2022","18/11/2022","Venta al Público",NA,1.819,NA,NA,NA,NA,NA,NA,1.769,NA
"29",29,"ALBACETE","ALBACETE","AVENIDA PRIMERA, S/N","Derecho","L-D: 24H",39.022139,-1.882056,"GMOIL","18/11/2022","17/11/2022","Venta al Público",NA,1.795,NA,NA,NA,NA,NA,NA,1.679,NA
"30",30,"ALBACETE","ALBACETE","POLIGONO CAMPOLLANO, 55","N","L-V: 05:30-23:00; S: 06:30-22:30; D: 07:30-21:00",39.015444,-1.871361,"CEPSA","18/11/2022","18/11/2022","Venta al Público",NA,1.909,1.989,NA,NA,NA,NA,NA,1.779,1.909
"31",31,"ALBACETE","ALBACETE","AVENIDA POLIGONO CAMPOLLANO AVENIDA 0, 67","N","L-D: 24H",39.021583,-1.886556,"VALERO 24H","18/11/2022","14/11/2022","Venta al Público",NA,1.899,NA,NA,NA,NA,NA,NA,1.799,NA
"32",32,"ALBACETE","ALBACETE","PASEO CUBA (LA), 36","N","L-D: 06:00-23:00",39.005083,-1.859917,"CEPSA","18/11/2022","16/11/2022","Venta al Público",NA,1.939,1.999,NA,NA,NA,NA,1.089,1.799,1.899
"33",33,"ALBACETE","ALBACETE","POLIGONO Nº 71, PARCELA 678, PARAJE HONDO DE LA MORENA S/N, S/N","Derecho","L-D: 06:30-22:30",38.969361,-1.823639,"CEPSA","18/11/2022","17/11/2022","Venta al Público",NA,1.919,1.999,NA,NA,NA,NA,NA,1.799,1.899
"34",34,"ALBACETE","ALBACETE","CARRETERA NACIONAL 322 PTO KM 347 KM. 347","Derecho","L-S: 07:00-22:00",38.965639,-1.9355,"P347","18/11/2022","18/11/2022","Venta al Público",NA,1.859,NA,NA,NA,NA,NA,NA,NA,NA
"35",35,"ALBACETE","ALBACETE","CARRETERA DE LAS PEÑAS KM 0+238 KM. 0,238","Izquierdo","L-D: 07:00-22:00",38.970778,-1.873194,"AREA LOS LLANOS","18/11/2022","15/11/2022","Venta al Público",NA,1.949,NA,NA,NA,NA,NA,NA,1.789,NA
"36",36,"ALBACETE","ALBACETE","CALLE PRINCIPE DE ASTURIAS (POLÍGONO DE ROMICA), 5","Izquierdo","L-D: 06:00-21:30",39.054694,-1.832,"BP ROMICA","18/11/2022","18/11/2022","Venta al Público",NA,1.919,2.009,NA,NA,NA,NA,NA,1.779,1.921
"37",37,"ALBACETE","ALBACETE","CALLE ALCALDE CONANGLA (C.C. EROSKI), S/N","N","L-S: 07:00-23:00; D: 08:00-23:00",38.988972,-1.847361,"FAMILY ENERGY","18/11/2022","16/11/2022","Venta al Público",NA,1.799,1.899,NA,NA,NA,NA,NA,1.689,1.859
"38",38,"ALBACETE","ALBACETE","CALLE C/ AUTOVIA C/V AVD. SEXTA, S/N","Derecho","L-D: 24H",39.029583,-1.888083,"NATURGY ES  GNV ALBACETE","18/11/2022","15/11/2022","Venta al Público",NA,NA,NA,1.58,1.39,NA,NA,NA,NA,NA
"39",39,"ALBACETE","ALBACETE","MADRID-CARTAGENA km 248,5","Derecho","L-D: 06:00-22:00",38.971722,-1.845278,"REPSOL. LOS ANGELES DE LA MANCHA, S.L.","18/11/2022","18/11/2022","Venta al Público",NA,1.929,1.989,NA,NA,NA,NA,NA,1.799,1.919
"40",40,"ALBACETE","ALBACETE","AVENIDA 0, 48","Derecho","L-V: 07:00-21:00; S-D: 09:00-14:00",39.021778,-1.886278,"ABOIL","18/11/2022","14/11/2022","Venta al Público",NA,2.259,NA,NA,NA,NA,NA,NA,2.299,2.369
"41",41,"ALBACETE","ALBACETE","CALLE FEDERICO GARCIA LORCA, 1","Derecho","L-D: 24H",39.000861,-1.849833,"PLENOIL","18/11/2022","18/11/2022","Venta al Público",NA,1.797,NA,NA,NA,NA,NA,NA,1.677,NA
"42",42,"ALBACETE","ALBACETE","AVENIDA ESCRITOR RODRIGO RUBIO, 3","Derecho","L-S: 09:00-21:30",39.006889,-1.885361,"A&A","18/11/2022","17/11/2022","Venta al Público",NA,1.818,1.888,NA,NA,NA,NA,0.898,1.728,NA
"43",43,"ALBACETE","ALBACETE","POLIGONO CAMPOLLANO C/.F, 13","Derecho","L-D: 24H",39.012472,-1.889417,"AVANZA OIL","18/11/2022","16/11/2022","Venta al Público",NA,1.799,NA,NA,NA,NA,NA,NA,NA,NA
"44",44,"ALBACETE","ALBACETE","POLIGONO ROMICA C/4, 106","N","L: 24H",39.060639,-1.836806,"VILLAFUEL SL","18/11/2022","18/11/2022","Venta al Público",NA,1.799,NA,NA,NA,NA,NA,NA,1.67,NA
"45",45,"ALBACETE","ALBACETE","CALLE AUTOVIA, SN","N","L-D: 24H",39.029167,-1.888333,"LA GAVIOTA GASOLINERA 24 HORA","18/11/2022","18/11/2022","Venta al Público",NA,1.819,NA,NA,NA,NA,NA,NA,1.739,NA
"46",46,"ALBACETE","ALCADOZO","CM-3203 km 41,9","Izquierdo","L-D: 07:00-21:30",38.646833,-1.978917,"CEPSA","18/11/2022","15/11/2022","Venta al Público",NA,1.919,1.989,NA,NA,1.539,NA,NA,1.739,NA
"47",47,"ALBACETE","ALCALA DEL JUCAR","CARRETERA CM-3201 47,1 KM. 47,1","Derecho","L: 08:00-20:00",39.203167,-1.433222,"EL JUCAR","18/11/2022","14/11/2022","Venta al Público",NA,1.899,NA,NA,NA,NA,NA,NA,1.739,NA
"48",48,"ALBACETE","ALCARAZ","CR N-322 276,5","Derecho","L-D: 07:00-22:00",38.673111,-2.492222,"REPSOL","18/11/2022","17/11/2022","Venta al Público",NA,1.909,1.969,NA,NA,NA,NA,NA,1.809,1.929
"49",49,"ALBACETE","ALMANSA","CL AVDA. DE AYORA, S.N. A","Derecho","L-D: 06:00-22:00",38.874583,-1.100528,"REPSOL","18/11/2022","18/11/2022","Venta al Público",NA,1.899,1.959,NA,NA,NA,NA,1.049,1.799,1.919
"50",50,"ALBACETE","ALMANSA","AUTOVIA A-31 KM. 140","Derecho","L-D: 07:00-23:00",38.875028,-1.17575,"SHELL","18/11/2022","18/11/2022","Venta al Público",NA,1.894,1.974,NA,NA,NA,NA,NA,1.789,1.929
"51",51,"ALBACETE","ALMANSA","AVENIDA CIRCUNVALACION, 9","N","L-D: 06:00-22:00",38.879167,-1.098889,"CEPSA","18/11/2022","18/11/2022","Venta al Público",NA,1.895,1.975,NA,NA,NA,NA,NA,1.769,1.901
"52",52,"ALBACETE","ALMANSA","AVENIDA MADRID, 11","N","L-V: 06:00-22:00",38.871556,-1.108,"CEPSA","18/11/2022","18/11/2022","Venta al Público",NA,1.885,1.965,NA,NA,NA,NA,NA,1.769,NA
"53",53,"ALBACETE","ALMANSA","AVENIDA CIRCUNVALACION, 26","N","L-D: 06:00-22:00",38.859944,-1.08475,"CEPSA","18/11/2022","18/11/2022","Venta al Público",NA,1.899,1.969,NA,NA,NA,NA,NA,1.809,NA
"54",54,"ALBACETE","ALMANSA","AUTOVIA A-31 KM. 143,350","Izquierdo","L-D: 06:00-22:00",38.878278,-1.143722,"CEPSA","18/11/2022","18/11/2022","Venta al Público",NA,1.905,2.005,NA,NA,NA,NA,NA,1.789,NA
"55",55,"ALBACETE","ALMANSA","AVENIDA CIRCUNVALACION, 17","N","L-D: 24H",38.874083,-1.089278,"GASÓLEOS S. ALMANSA","18/11/2022","18/11/2022","Venta al Público",NA,1.899,NA,NA,NA,NA,NA,NA,NA,NA
"56",56,"ALBACETE","ALMANSA","CARRETERA N-430 BADAJOZ A VALENCIA KM. 594","Derecho","L-D: 24H",38.850278,-1.027694,"GASOLINERA LOW COST PENADES","18/11/2022","15/11/2022","Venta al Público",NA,1.839,NA,NA,NA,1.499,NA,NA,1.769,NA
"57",57,"ALBACETE","ALMANSA","AVENIDA INFANTE DON JUAN MANUEL, 8","Derecho","L-D: 24H",38.874556,-1.102944,"QUALITY ALMANSA","18/11/2022","17/11/2022","Venta al Público",NA,1.839,NA,NA,NA,NA,NA,NA,1.749,NA
"58",58,"ALBACETE","ALPERA","BONETE, S/Nº","N","L-D: 24H",38.958875,-1.236552,"COOPERATIVA SANTA CRUZ DE ALPERA","18/11/2022","14/11/2022","Venta al Público",NA,1.867,NA,NA,NA,1.449,NA,NA,1.701,NA
"59",59,"ALBACETE","BALAZOTE","N-322 km 326,2","Derecho","L-D: 07:00-23:00",38.878028,-2.150639,"E.S. BALAZOTE S.L.","18/11/2022","18/11/2022","Venta al Público",NA,1.946,NA,NA,NA,1.69,NA,NA,1.837,NA
"60",60,"ALBACETE","BARRAX","CALLE ALBACETE, 57","Izquierdo","L-D: 06:00-23:00",39.043139,-2.195139,"E.S. BARRAX S.L.","18/11/2022","18/11/2022","Venta al Público",NA,1.946,NA,NA,NA,1.69,NA,NA,1.837,NA
"61",61,"ALBACETE","BARRAX","CAMINO DE LOS GONZALOS SN","Derecho","L-D: 24H",39.051236,-2.192996,"COABA","18/11/2022","14/11/2022","CERRADA AL PUBLICO GENERAL",NA,1.849,NA,NA,NA,1.438,NA,NA,NA,NA
"62",62,"ALBACETE","BONETE","CR N-430, 566,3","Izquierdo","L-D: 06:00-22:00",38.876111,-1.331611,"REPSOL","18/11/2022","18/11/2022","Venta al Público",NA,1.909,1.969,NA,NA,NA,NA,NA,1.769,1.899
"63",63,"ALBACETE","BONETE","AUTOVIA A-31 KM. 126","Derecho","L-D: 06:00-22:00",38.875861,-1.3315,"REPSOL","18/11/2022","18/11/2022","Venta al Público",NA,1.909,1.959,NA,NA,NA,NA,NA,1.769,1.889
"64",64,"ALBACETE","BONILLO (EL)","CALLE CARRETERA MUNERA, 2","Derecho","S-D: 07:00-15:00",38.953361,-2.535056,"REPSOL","18/11/2022","18/11/2022","Venta al Público",NA,1.889,1.949,NA,NA,1.531,NA,NA,1.749,1.889
"65",65,"ALBACETE","CASAS DE JUAN NUÑEZ","AVDA. ALBACETE, 33","Derecho","L-D: 07:00-23:00",39.100792,-1.560857,"GASOLINERAS DEL REY","18/11/2022","18/11/2022","Venta al Público",NA,1.949,NA,NA,NA,1.479,NA,NA,1.799,NA
"66",66,"ALBACETE","CASAS DE VES","CARRETERA CASAS IBAÑEZ KM. 13,8","Derecho","L-V: 08:00-13:30 y 15:00-18:00",39.255139,-1.332194,"COOPERATIVA","18/11/2022","15/11/2022","CERRADA AL PUBLICO GENERAL",NA,NA,NA,NA,NA,1.47,NA,NA,NA,NA
"67",67,"ALBACETE","CASAS-IBAÑEZ","AVDA. DEL VINO, 10","Derecho","L-D: 24H",39.291375,-1.474107,"CEPSA","18/11/2022","14/11/2022","CERRADA AL PUBLICO GENERAL",NA,NA,NA,NA,NA,1.55,NA,NA,NA,NA
"68",68,"ALBACETE","CASAS-IBAÑEZ","CARRETERA ALBACETE KM. 94","Izquierdo","L-D: 07:00-21:00",39.283944,-1.477806,"CEPSA","18/11/2022","15/11/2022","Venta al Público",NA,1.969,2.029,NA,NA,1.609,NA,NA,1.809,1.969
"69",69,"ALBACETE","CAUDETE","CR N-330, 71,4","Izquierdo","L-D: 06:00-23:00",38.756417,-0.955833,"REPSOL","18/11/2022","18/11/2022","Venta al Público",NA,1.909,1.969,NA,NA,1.475,NA,NA,1.769,1.899
"70",70,"ALBACETE","CAUDETE","AVENIDA VALENCIA DE, 16","N","L-D: 06:00-22:00",38.708944,-0.982111,"GALP","18/11/2022","16/11/2022","Venta al Público",NA,1.919,2.009,NA,NA,NA,NA,NA,1.809,1.949
"71",71,"ALBACETE","CAUDETE","CARRETERA N-344 KM. 114,500","Izquierdo","L-D: 24H",38.710861,-0.974778,"TRANSPORTES CAUDETE","18/11/2022","17/11/2022","Venta al Público",NA,1.834,NA,NA,NA,1.524,NA,NA,NA,NA
"72",72,"ALBACETE","CAUDETE","AUTOVIA A-31 KM. 172","Derecho","L-V: 07:00-15:00",38.721917,-0.933861,"BP OIL","18/11/2022","16/11/2022","Venta al Público",NA,1.929,2.109,NA,NA,NA,NA,NA,1.819,1.961
"73",73,"ALBACETE","CAUDETE","CARRETERA D-12 ESTACION KM. 32","Derecho","L-D: 24H",38.711694,-0.971639,"VILA Y FAYOS","18/11/2022","17/11/2022","Venta al Público",NA,1.839,NA,NA,NA,1.529,NA,NA,1.759,NA
"74",74,"ALBACETE","CAUDETE","CR N-344 DIRC.VALENCIA, KM.  118.3","N","L-D: 06:00-22:00",38.727472,-0.943,"BP PARGA I PETROL BAS BEL","18/11/2022","15/11/2022","Venta al Público",NA,1.949,2.049,NA,NA,NA,NA,NA,1.82,1.951
"75",75,"ALBACETE","CAUDETE","CARRETERA D12 ESTACION KM. 1","Derecho","L-D: 24H",38.71075,-0.973861,"HAM","18/11/2022","14/11/2022","Venta al Público",NA,NA,NA,NA,1.299,NA,NA,NA,NA,NA
"76",76,"ALBACETE","CENIZATE","CALLE VIRGEN DE LAS NIEVES, 17","Derecho","L-D: 24H",39.301,-1.664167,"VIRGEN DE LAS NIEVES","18/11/2022","14/11/2022","Venta al Público",NA,1.8,NA,NA,NA,1.428,NA,NA,1.632,NA
"77",77,"ALBACETE","CHINCHILLA DE MONTE-ARAGO","AUTOVIA A-31 KM. 86","Izquierdo","L-D: 06:00-23:00",38.938611,-1.757611,"REPSOL","18/11/2022","04/11/2022","Venta al Público",NA,2.019,2.089,NA,NA,NA,NA,NA,1.799,NA
"78",78,"ALBACETE","CHINCHILLA DE MONTE-ARAGO","AUTOVIA A-31 KM. 86","Derecho","L-D: 06:00-23:00",38.937583,-1.758,"REPSOL","18/11/2022","04/11/2022","Venta al Público",NA,2.019,2.089,NA,NA,NA,NA,1.019,1.799,1.919
"79",79,"ALBACETE","CHINCHILLA DE MONTE-ARAGO","Ctra. AB-430 KM 530,3","Izquierdo","L: 06:00-22:00",38.915972,-1.726278,"REPSOL","18/11/2022","18/11/2022","Venta al Público",NA,1.909,1.969,NA,NA,NA,NA,NA,1.779,1.899
"80",80,"ALBACETE","ELCHE DE LA SIERRA","CL BOLEA, 36 (CM-412 km 235,65)","Derecho","L: 06:00-22:00",38.451306,-2.044778,"CAMPSA","18/11/2022","18/11/2022","Venta al Público",NA,1.909,1.969,NA,NA,1.547,NA,NA,1.769,1.889
"81",81,"ALBACETE","ELCHE DE LA SIERRA","POLIGONO EL CAMPILLO A, 2","Derecho","L-V: 08:00-21:00; S: 08:00-14:00",38.460694,-2.017917,"DLP","18/11/2022","18/11/2022","Venta al Público",NA,1.849,NA,NA,NA,NA,NA,NA,1.71,NA
"82",82,"ALBACETE","FUENTE-ALAMO","AVDA. DOCTOR PEREZ GIL, 25","N","L-D: 07:00-21:00",38.689833,-1.433306,"Nº 7374","18/11/2022","14/11/2022","Venta al Público",NA,1.899,NA,NA,NA,1.47,NA,NA,1.839,2.099
"83",83,"ALBACETE","FUENTE-ALAMO","LA HIGUERA, 000","Derecho","L-D: 24H",38.695348,-1.431579,"SAN DIONISIO","18/11/2022","14/11/2022","CERRADA AL PUBLICO GENERAL",NA,1.81,NA,NA,NA,1.38,NA,NA,NA,NA
"84",84,"ALBACETE","FUENTEALBILLA","N-322 (CORDOBA-VALENCIA) km 399","Izquierdo","L-D: 07:00-20:00",39.269972,-1.548639,"ES SAN ANTONIOABAD. FUENTEALBILLA","18/11/2022","09/11/2022","Venta al Público",NA,1.889,NA,NA,NA,1.489,NA,NA,1.719,NA
"85",85,"ALBACETE","GINETA (LA)","CR A-31, 235","Izquierdo","L-D: 06:00-22:00",39.086278,-1.963944,"REPSOL","18/11/2022","18/11/2022","Venta al Público",NA,1.919,1.979,NA,NA,NA,NA,NA,1.779,1.899
"86",86,"ALBACETE","GINETA (LA)","CR N-301, 231,8","Derecho","L-D: 07:00-21:00",39.107667,-1.990194,"REPSOL","18/11/2022","18/11/2022","Venta al Público",NA,1.889,1.949,NA,NA,NA,NA,NA,1.749,1.899
"87",87,"ALBACETE","GOLOSALVO","CARRETERA NACIONAL 322 KM. 390","Derecho","L: 06:00-22:00",39.238111,-1.635111,"CEPSA","18/11/2022","18/11/2022","Venta al Público",NA,1.949,2.029,NA,NA,NA,NA,NA,1.799,1.939
"88",88,"ALBACETE","HELLIN","CARRETERA MURCIA KM. 33","Izquierdo","L-D: 06:00-23:00",38.506806,-1.687833,"PETRONOR","18/11/2022","18/11/2022","Venta al Público",NA,1.889,1.949,NA,NA,NA,NA,NA,1.759,1.879
"89",89,"ALBACETE","HELLIN","AUTOVIA A-30 KM. 322,5","Derecho","L-D: 06:00-22:00",38.46425,-1.596722,"GALP","18/11/2022","18/11/2022","Venta al Público",NA,1.919,1.989,NA,NA,NA,NA,NA,1.799,1.969
"90",90,"ALBACETE","HELLIN","CARRETERA A-30 KM. 328,2","Izquierdo","L-D: 06:00-22:00",38.417306,-1.571667,"CEPSA","18/11/2022","18/11/2022","Venta al Público",NA,1.885,1.965,NA,NA,NA,NA,NA,1.769,NA
"91",91,"ALBACETE","HELLIN","POLIGONO SAN RAFAEL 3ª FASE, SN","N","L-D: 24H",38.545111,-1.705389,"IDS","18/11/2022","18/11/2022","Venta al Público",NA,1.949,NA,NA,NA,NA,NA,NA,NA,NA
"92",92,"ALBACETE","HELLIN","CARRETERA TORREUCHEA KM. 1","Derecho","L-D: 24H",38.495972,-1.636389,"HELLIN GAS S.L.","18/11/2022","16/11/2022","Venta al Público",NA,1.919,2.019,NA,NA,1.699,NA,1.089,1.779,1.889
"93",93,"ALBACETE","HELLIN","CARRETERA N-301 KM. 316","Izquierdo","L-D: 06:00-23:00",38.524444,-1.703056,"REPSOL","18/11/2022","18/11/2022","Venta al Público",NA,1.909,1.969,NA,NA,NA,NA,NA,1.779,1.899
"94",94,"ALBACETE","HELLIN","CARRETERA CM 412 KM. 273","Derecho","L-D: 06:30-22:00",38.532389,-1.694889,"PETROGAS","18/11/2022","16/11/2022","Venta al Público",NA,1.8,NA,NA,NA,NA,NA,NA,1.708,NA
"95",95,"ALBACETE","HELLIN","MELCHOR  DE MACANAZ, 66","N","L: 06:00-23:00",38.511222,-1.696972,"BP","18/11/2022","18/11/2022","Venta al Público",NA,1.889,1.949,NA,NA,NA,NA,NA,1.759,1.879
"96",96,"ALBACETE","HELLIN","CARRETERA N 301-A KM. S/N","Derecho","L-D: 24H",38.502528,-1.677694,"MULTSER-OIL","18/11/2022","17/11/2022","Venta al Público",NA,1.839,NA,NA,NA,NA,NA,NA,1.719,NA
"97",97,"ALBACETE","HELLIN","CARRETERA JAEN KM. 47","Derecho","L-D: 08:00-21:00",38.502889,-1.714556,"REPSOL","18/11/2022","18/11/2022","Venta al Público",NA,1.889,1.949,NA,NA,NA,NA,NA,1.759,1.879
"98",98,"ALBACETE","HELLIN","AVENIDA LIBERTAD, 111","Derecho","L-D: 24H",38.517306,-1.700417,"PLENOIL","18/11/2022","18/11/2022","Venta al Público",NA,1.799,NA,NA,NA,NA,NA,NA,1.669,NA
"99",99,"ALBACETE","HIGUERUELA","BALTASAR GONZALEZ SAEZ, 34 - 36","Derecho","L-D: 24H",38.960944,-1.444083,"NO","18/11/2022","14/11/2022","CERRADA AL PUBLICO GENERAL",NA,1.846,NA,NA,NA,1.44,NA,NA,1.709,NA
"100",100,"ALBACETE","HOYA-GONZALO","AUTOVIA A-31 KM. 103,150","Derecho","L-D: 07:00-23:00",38.921833,-1.583389,"REPSOL","18/11/2022","17/11/2022","Venta al Público",NA,1.919,1.969,NA,NA,NA,NA,NA,1.799,1.899
"101",101,"ALBACETE","ISSO","CARRETERA DE HELLIN KM. 104","Derecho","L-D: 06:00-23:00",38.491861,-1.741111,"REPSOL","18/11/2022","18/11/2022","Venta al Público",NA,1.889,1.949,NA,NA,1.549,NA,NA,1.749,1.869
"102",102,"ALBACETE","JARDIN (EL)","CARRETERA 322 KM. 302","Izquierdo","L-V: 07:00-17:00",38.808528,-2.327639,"REPSOL","18/11/2022","18/11/2022","Venta al Público",NA,1.889,1.949,NA,NA,NA,NA,NA,1.749,NA
"103",103,"ALBACETE","LETUR","CARRETERA A 45 KM. 39,8","Derecho","L-D: 07:00-21:30",38.356556,-2.111056,"E.S. LETUR","18/11/2022","18/11/2022","Venta al Público",NA,1.907,NA,NA,NA,1.597,NA,NA,1.775,NA
"104",104,"ALBACETE","LEZUZA","PASEO LIBERTAD, 62","Derecho","L-D: 7:00-20:30",38.948472,-2.354861,"E.S. VIRGEN DE LA CRUZ","18/11/2022","14/11/2022","Venta al Público",NA,1.989,NA,NA,NA,NA,NA,NA,1.829,NA
"105",105,"ALBACETE","MADRIGUERAS","AVENIDA LEVANTE, 15","Izquierdo","L-D: 06:00-22:00",39.233056,-1.799472,"REPSOL","18/11/2022","18/11/2022","Venta al Público",NA,1.889,1.969,NA,NA,1.483,NA,NA,1.759,1.879
"106",106,"ALBACETE","MADRIGUERAS","CARRETERA C-3222 KM. 9","Derecho","L-S: 07:00-15:00",39.226611,-1.800611,"E.S. MADRIGUERAS","18/11/2022","14/11/2022","Venta al Público",NA,1.879,NA,NA,NA,NA,NA,NA,1.759,NA
"107",107,"ALBACETE","MADRIGUERAS","AVENIDA DE LEVANTE 27","Derecho","L-D: 24H",39.232528,-1.794139,"SAT VIDEMA","18/11/2022","14/11/2022","CERRADA AL PUBLICO GENERAL",NA,1.814,NA,NA,NA,1.404,NA,NA,NA,NA
"108",108,"ALBACETE","MAHORA","CAMINO HORTIGOSA, S/N","N","L-D: 24H",39.209972,-1.729333,"SECADEMA","18/11/2022","14/11/2022","CERRADA AL PUBLICO GENERAL",NA,1.84,NA,NA,NA,1.45,NA,NA,NA,NA
"109",109,"ALBACETE","MINAYA","CARRERA N-301, 195,2","Derecho","L-D: 06:00-23:00",39.276056,-2.330333,"REPSOL","18/11/2022","18/11/2022","Venta al Público",NA,1.919,1.989,NA,NA,1.549,NA,NA,1.799,1.969
"110",110,"ALBACETE","MINAYA","CARRETERA MADRID-CARTAGENA KM. S/N","Derecho","L-D: 24H",39.273583,-2.325056,"COOPERATIVA VITIVINICOLA SANTIAGO EL MAYOR","18/11/2022","14/11/2022","CERRADA AL PUBLICO GENERAL",NA,1.84,NA,NA,NA,1.42,NA,NA,NA,NA
"111",111,"ALBACETE","MONTEALEGRE DEL CASTILLO","CALLE CAPATAZ SANTIAGO, 91","Derecho","L-D: 06:30-23:00",38.789694,-1.32875,"BODEGAS SANTIAGO APOSTOL","18/11/2022","15/11/2022","CERRADA AL PUBLICO GENERAL",NA,1.779,NA,NA,NA,1.379,NA,NA,NA,NA
"112",112,"ALBACETE","MONTEALEGRE DEL CASTILLO","CALLE CAPATAZ SANTIAGO, 23","Izquierdo","L-D: 07:00-21:00",38.785917,-1.33025,"LOS CORRALES","18/11/2022","18/11/2022","Venta al Público",NA,1.899,NA,NA,NA,NA,NA,NA,1.799,NA
"113",113,"ALBACETE","MOTILLEJA","MEDIO DÍA 28","N","L-D: 24H",39.17907,-1.788246,"SAT MOTILLEJA","18/11/2022","14/11/2022","CERRADA AL PUBLICO GENERAL",NA,NA,NA,NA,NA,1.377,NA,NA,NA,NA
"114",114,"ALBACETE","MUNERA","CALLE COOPERATIVAS, 4","N","L-D: 24H",39.046139,-2.480694,"OLEOVINICOLA CAMPOS DE MUNERA S. COOP. DE C-LM","18/11/2022","14/11/2022","CERRADA AL PUBLICO GENERAL",NA,1.919,NA,NA,NA,1.49,NA,NA,1.719,NA
"115",115,"ALBACETE","MUNERA","CALLE POZO (EL), 106","Derecho","L-D: 06:30-22:30",39.043806,-2.485028,"INPEALSA","18/11/2022","18/11/2022","Venta al Público",NA,1.829,1.879,NA,NA,NA,NA,NA,1.769,NA
"116",116,"ALBACETE","NAVAS DE JORQUERA","CTRA DE LEDAÑA S/N km S/N","N","L-D: 24H",39.281778,-1.719778,"COOP SAN GREGORIO","18/11/2022","14/11/2022","CERRADA AL PUBLICO GENERAL",NA,1.785,NA,NA,NA,1.398,NA,NA,NA,NA
"117",117,"ALBACETE","NERPIO","CR AB-702, 45,6","Derecho","L-D: 07:00-21:00",38.151167,-2.293444,"CAMPSA","18/11/2022","18/11/2022","Venta al Público",NA,1.889,NA,NA,NA,1.567,NA,NA,1.749,1.869
"118",118,"ALBACETE","ONTUR","CAMINO DE HELLIN S/N","Derecho","L-D: 24H",38.609556,-1.508333,"ONTALBA S. COOP DE C-LM","18/11/2022","14/11/2022","Venta al Público",NA,1.82,NA,NA,NA,1.43,NA,NA,NA,NA
"119",119,"ALBACETE","ONTUR","CRTA.CM km KM297,5","Izquierdo","L-D: 07:00-21:00",38.622944,-1.497667,"REPSOL","18/11/2022","18/11/2022","Venta al Público",NA,1.889,1.949,NA,NA,1.549,NA,NA,1.749,NA
"120",120,"ALBACETE","OSSA DE MONTIEL","CARRETERA N 430 KM. 429","Izquierdo","L-S: 08:00-20:00; D: 08:00-18:00",38.967167,-2.7515,"REPSOL","18/11/2022","16/11/2022","Venta al Público",NA,1.899,1.949,NA,NA,NA,NA,NA,1.759,NA
"121",121,"ALBACETE","PETROLA","CARRETERA FUENTEALAMO KM. 36","Izquierdo","L-D: 24H",38.828806,-1.553694,"GASOLEOS TURBULA","18/11/2022","14/11/2022","Venta al Público",NA,1.929,NA,NA,NA,NA,NA,NA,1.779,NA
"122",122,"ALBACETE","PEÑAS DE SAN PEDRO","AVENIDA GUARDIA CIVIL, S/N","Derecho","L-D: 24H",38.724028,-1.990278,"VALERO 24H ENERGIA","18/11/2022","14/11/2022","Venta al Público",NA,1.909,NA,NA,NA,NA,NA,NA,1.799,NA
"123",123,"ALBACETE","POZO BUENO","CL AVENIDA GENERALISIMO 107 (N-301 km 276)","Izquierdo","L-D: 06:00-22:00",38.803389,-1.731861,"REPSOL","18/11/2022","18/11/2022","Venta al Público",NA,1.929,1.989,NA,NA,NA,NA,NA,1.769,NA
"124",124,"ALBACETE","POZO CAÑADA","CALLE ANTONIO MACHADO, 2","Derecho","L-V: 07:00-14:00; S: 09:00-14:00",38.805278,-1.736389,"E.S. LEDAÑA","18/11/2022","14/11/2022","Venta al Público",NA,1.919,NA,NA,NA,NA,NA,NA,NA,NA
"125",125,"ALBACETE","POZO CAÑADA","CALLE HERNAN CORTES, S/N","N","L-D: 08:00-20:00",38.813389,-1.735917,"POZOTRANS","18/11/2022","14/11/2022","CERRADA AL PUBLICO GENERAL",NA,1.74,NA,NA,NA,NA,NA,NA,NA,NA
"126",126,"ALBACETE","POZO-LORENTE","POLIGONO PARAJE RECIAL, 2","Izquierdo","L-D: 24H",39.081278,-1.512611,"SAT SANTA CRUZ DE POZO LORENTE","18/11/2022","15/11/2022","Venta al Público",NA,1.859,NA,NA,NA,1.399,NA,NA,NA,NA
"127",127,"ALBACETE","POZOHONDO","CR CM-313 61,7","Izquierdo","L-D: 07:00-21:00",38.717556,-1.91075,"REPSOL","18/11/2022","17/11/2022","Venta al Público",NA,1.959,NA,NA,NA,1.679,NA,NA,1.909,NA
"128",128,"ALBACETE","POZUELO","CARRETERA M 313 KM. 50","Izquierdo","L-D: 07:00-22:00",38.804722,-2.098778,"INLOCOR S.L.","18/11/2022","15/11/2022","Venta al Público",NA,1.979,NA,NA,NA,1.599,NA,NA,1.769,1.969
"129",129,"ALBACETE","RIOPAR","CARRETERA CM-412 KM. 199,5","Izquierdo","L-D: 08:00-20:00",38.493528,-2.411444,"CEPSA","18/11/2022","14/11/2022","Venta al Público",NA,1.969,2.029,NA,NA,NA,NA,NA,1.809,NA
"130",130,"ALBACETE","ROBLEDO","CARRETERA NACIONAL 320 KM. 289","Derecho","L-V: 07:00-21:00; S: 07:00-14:30; D: 07:00-21:00",38.771194,-2.450028,"CANOIL","18/11/2022","17/11/2022","Venta al Público",NA,1.966,NA,NA,NA,NA,NA,NA,1.894,NA
"131",131,"ALBACETE","RODA (LA)","CALLE ALFREDO ATIENZA, 156","Derecho","L: 06:00-23:00",39.201667,-2.149,"REPSOL","18/11/2022","18/11/2022","Venta al Público",NA,1.929,1.989,NA,NA,NA,NA,NA,1.799,1.919
"132",132,"ALBACETE","RODA (LA)","AUTOVIA A-31 KM. 40","Derecho","L-D: 06:00-22:00",39.200944,-2.144639,"REPSOL","18/11/2022","18/11/2022","Venta al Público",NA,1.919,1.969,NA,NA,NA,NA,NA,1.779,1.889
"133",133,"ALBACETE","RODA (LA)","MARTIRES 209","Derecho","L-V: 07:00-21:00; S: 08:00-13:00",39.212861,-2.171778,"CEPSA","18/11/2022","18/11/2022","Venta al Público",NA,1.829,1.909,NA,NA,NA,NA,NA,1.719,1.851
"134",134,"ALBACETE","RODA (LA)","CR NACIONAL 301 km 210,300","N","L-D: 24H",39.213653,-2.17619,"RODATRANS","18/11/2022","14/11/2022","CERRADA AL PUBLICO GENERAL",NA,1.74,NA,NA,NA,NA,NA,NA,NA,NA
"135",135,"ALBACETE","RODA (LA)","ALFREDO ATIENZA, 149-151","Derecho","L-D: 24H",39.201139,-2.14775,"LA REMEDIADORA","18/11/2022","17/11/2022","CERRADA AL PUBLICO GENERAL",NA,1.75,NA,NA,NA,1.33,NA,NA,NA,NA
"136",136,"ALBACETE","RODA (LA)","CARRETERA AB101 KM. 0,2","N","L-D: 24H",39.218389,-2.158028,"GASPLAY","18/11/2022","17/11/2022","Venta al Público",NA,1.809,NA,NA,NA,NA,NA,NA,1.719,NA
"137",137,"ALBACETE","RODA (LA)","CARRETERA A-31 KM. 50","Derecho","L-D: 07:00-23:00",39.143972,-2.05125,"GALP","18/11/2022","16/11/2022","Venta al Público",NA,1.959,2.049,NA,NA,NA,NA,NA,1.819,1.949
"138",138,"ALBACETE","RODA (LA)","AUTOVIA A-31 KM. 34,50","Izquierdo","L-D: 07:00-23:00",39.225,-2.186083,"GALP","18/11/2022","16/11/2022","Venta al Público",NA,1.959,2.049,NA,NA,NA,NA,NA,1.819,1.949
"139",139,"ALBACETE","RODA (LA)","CR NACIONAL 301, KM 209,5","N","L-D: 06:00-22:00",39.212361,-2.171028,"BP CASA JUANITO RESTAURANTE","18/11/2022","18/11/2022","Venta al Público",NA,1.919,2.009,NA,NA,NA,NA,NA,1.799,NA
"140",140,"ALBACETE","RODA (LA)","CARRETERA CM-3114 KM. 0,1","Izquierdo","L-V: 06:00-10:00; S: 06:00-14:00",39.213722,-2.156667,"REPSOL","18/11/2022","18/11/2022","Venta al Público",NA,1.919,1.979,NA,NA,NA,NA,NA,1.789,1.909
"141",141,"ALBACETE","RODA (LA)","POLIGONO AVENIDA PRIMERA, 17","Derecho","L-D: 24H",39.19125,-2.143056,"HAM","18/11/2022","14/11/2022","Venta al Público",NA,NA,NA,1.379,1.299,NA,NA,NA,NA,NA
"142",142,"ALBACETE","SALOBRAL (EL)","CM. 3203 km 14,1","Derecho","L-S: 07:00-21:30; D: 09:00-14:00",38.867556,-1.9205,"LOZANO","18/11/2022","18/11/2022","Venta al Público",NA,1.895,1.959,NA,NA,1.42,NA,NA,1.775,NA
"143",143,"ALBACETE","SALOBRAL (EL)","CTRA.AGUASNUEVAS KM 0,25","Derecho","L-D: 24H",38.870278,-1.922722,"CORYMAR","18/11/2022","17/11/2022","CERRADA AL PUBLICO GENERAL",NA,NA,NA,NA,NA,1.42,NA,NA,NA,NA
"144",144,"ALBACETE","SANTA ANA","AVENIDA PRINCIPE, 2","Derecho","L-D: 08:00-16:00",38.900944,-1.994028,"REPSOL","18/11/2022","18/11/2022","Venta al Público",NA,1.889,1.949,NA,NA,1.517,NA,NA,1.749,1.869
"145",145,"ALBACETE","SOCOVOS","AVENIDA DE LA PAZ, 3","Derecho","L-S: 06:00-22:00; D: 06:30-22:00",38.331361,-1.981861,"NAVARRO Y VALERO, S.L","18/11/2022","17/11/2022","Venta al Público",NA,1.929,NA,NA,NA,1.659,NA,NA,1.789,1.939
"146",146,"ALBACETE","TARAZONA DE LA MANCHA","CARRETERA VILLAGARCIA KM. 0,1","Izquierdo","L-D: 24H",39.270556,-1.908778,"COOP. LA UNION AB","18/11/2022","18/11/2022","CERRADA AL PUBLICO GENERAL",NA,1.74,NA,NA,NA,1.34,NA,NA,1.65,NA
"147",147,"ALBACETE","TARAZONA DE LA MANCHA","CL AVENIDA DE LA RODA, 1","Izquierdo","L-D: 07:00-23:00",39.25975,-1.911389,"REPSOL","18/11/2022","18/11/2022","Venta al Público",NA,1.889,1.969,NA,NA,NA,NA,NA,1.749,NA
"148",148,"ALBACETE","TARAZONA DE LA MANCHA","AVENIDA ALBACETE, 35","Derecho","L-D: 24H",39.256194,-1.912194,"LA GAVIOTA GASOLINERAS","18/11/2022","15/11/2022","Venta al Público",NA,1.789,NA,NA,NA,NA,NA,NA,1.718,NA
"149",149,"ALBACETE","TOBARRA","AVENIDA GUARDIA CIVIL, 114","Derecho","L-D: 07:00-22:00",38.594639,-1.685417,"E.S. TOBARRA","18/11/2022","16/11/2022","Venta al Público",NA,1.909,1.959,NA,NA,NA,NA,NA,1.799,NA
"150",150,"ALBACETE","TOBARRA","AVENIDA GUARDIA CIVIL, 233","Derecho","L-D: 24H",38.602278,-1.680917,"REPSOL","18/11/2022","18/11/2022","Venta al Público",NA,1.919,1.989,NA,NA,1.549,NA,NA,1.819,1.979
"151",151,"ALBACETE","TOBARRA","CAMINO CAMINO DEL GUIJARRAL, 0","Izquierdo","L-D: 06:00-22:00",38.603306,-1.694083,"SAN ROQUE DE TOBARRA S. COOP. DE C-LM","18/11/2022","17/11/2022","Venta al Público",NA,1.826,NA,NA,NA,1.504,NA,NA,NA,NA
"152",152,"ALBACETE","TOBARRA","AVENIDA GUARDIA CIVIL, 162","Derecho","L-D: 06:00-23:00",38.601722,-1.680833,"NTRA. SRA. DE LA ENCARNACION","18/11/2022","16/11/2022","Venta al Público",NA,1.829,NA,NA,NA,NA,NA,NA,1.699,NA
"153",153,"ALBACETE","VALDEGANGA","SANTA CRUZ 16","Derecho","L-D: 24H",39.137222,-1.680944,"NO HAY","18/11/2022","14/11/2022","CERRADA AL PUBLICO GENERAL",NA,1.897,NA,NA,NA,1.457,NA,NA,NA,NA
"154",154,"ALBACETE","VILLALGORDO DEL JUCAR","CALLE DEL VINO, 10","N","L-D: 24H",39.2935,-2.059556,"SAN ISIDRO","18/11/2022","15/11/2022","CERRADA AL PUBLICO GENERAL",NA,NA,NA,NA,NA,1.349,NA,NA,NA,NA
"155",155,"ALBACETE","VILLALGORDO DEL JUCAR","CARRETERA CM-3114 KM. 12,7","Izquierdo","L-D: 07:30-21:30",39.302389,-2.067639,"E.S EL GORRION","18/11/2022","14/11/2022","Venta al Público",NA,1.929,NA,NA,NA,NA,NA,NA,1.789,NA
"156",156,"ALBACETE","VILLAMALEA","CARRETERA CM-3201 KM. 22,70","Derecho","L-S: 07:00-21:00; D: 07:00-14:00",39.366861,-1.592778,"REPSOL","18/11/2022","03/11/2022","Venta al Público",NA,2.029,2.079,NA,NA,1.602,NA,NA,1.749,1.859
"157",157,"ALBACETE","VILLAMALEA","CALLE VALENCIA, 41","Izquierdo","L-D: 24H",39.367333,-1.59325,"NO TIENE","18/11/2022","14/11/2022","Venta al Público",NA,1.779,NA,NA,NA,1.443,NA,NA,NA,NA
"158",158,"ALBACETE","VILLAMALEA","CARRETERA CENIZATE KM. 1,5","Derecho","L-D: 00:00-23:59",39.35025,-1.613194,"CHAMPINTER","18/11/2022","14/11/2022","Venta al Público",NA,1.849,NA,NA,NA,NA,NA,NA,1.739,NA
"159",159,"ALBACETE","VILLAPALACIOS","CR N-322, 258,8","Derecho","L-D: 07:00-21:00",38.581722,-2.626222,"REPSOL","18/11/2022","18/11/2022","Venta al Público",NA,1.949,2.049,NA,NA,1.639,NA,NA,1.789,2.179
"160",160,"ALBACETE","VILLAR DE CHINCHILLA","AUTOVIA A31 KM. 111","N","L-V: 06:00-22:00; S-D: 07:00-22:00",38.898306,-1.502806,"CEPSA","18/11/2022","17/11/2022","Venta al Público",NA,1.969,2.039,NA,NA,NA,NA,NA,1.829,1.989
"161",161,"ALBACETE","VILLARROBLEDO","AVENIDA REYES CATOLICOS, 26","Derecho","L-V: 07:00-21:00; S: 08:00-13:00",39.261472,-2.599417,"CEPSA","18/11/2022","18/11/2022","Venta al Público",NA,1.869,1.949,NA,NA,NA,NA,NA,1.759,NA
"162",162,"ALBACETE","VILLARROBLEDO","CARRETERA N-310 KM. 120,5","Derecho","L-V: 07:00-21:00; D: 14:00-19:00",39.198,-2.713722,"CEPSA","18/11/2022","18/11/2022","Venta al Público",NA,1.875,1.955,NA,NA,1.549,NA,NA,1.769,1.901
"163",163,"ALBACETE","VILLARROBLEDO","CALLE DOS DE MAYO, 167","Izquierdo","L-D: 06:00-00:00",39.278222,-2.602028,"REPSOL","18/11/2022","16/11/2022","Venta al Público",NA,1.899,1.999,NA,NA,1.519,NA,NA,1.769,NA
"164",164,"ALBACETE","VILLARROBLEDO","CARRETERA NACIONAL 310 KM. 137,7","Izquierdo","L-S: 07:00-22:00",39.293722,-2.567139,"REPSOL","18/11/2022","18/11/2022","Venta al Público",NA,1.889,1.949,NA,NA,NA,NA,NA,1.749,1.869
"165",165,"ALBACETE","VILLARROBLEDO","AVENIDA REYES CATÓLICOS, 108","N","L-D: 06:00-22:00",39.272056,-2.594111,"GALP","18/11/2022","18/11/2022","Venta al Público",NA,1.864,1.954,NA,NA,NA,NA,NA,1.744,NA
"166",166,"ALBACETE","VILLARROBLEDO","AUTOVIA A-43 KM. 129","Derecho","L-D: 24H",39.258778,-2.586778,"REPSOL","18/11/2022","14/11/2022","Venta al Público",NA,1.929,1.999,NA,NA,NA,NA,NA,1.779,1.899
"167",167,"ALBACETE","VILLARROBLEDO","AUTOVIA A-43 KM. 390","Izquierdo","L-D: 06:00-23:59",39.205194,-2.708528,"CEPSA","18/11/2022","18/11/2022","Venta al Público",NA,1.875,1.955,NA,NA,NA,NA,NA,1.769,1.901
"168",168,"ALBACETE","VILLARROBLEDO","AVENIDA REYES CATÓLICOS (APARCAMIENTO DEL CARREFOUR), S/N","N","L-S: 08:00-22:00",39.285722,-2.579639,"CARREFOUR","18/11/2022","18/11/2022","Venta al Público",NA,1.889,1.929,NA,NA,NA,NA,NA,1.749,1.869
"169",169,"ALBACETE","VILLARROBLEDO","CARRETERA OSSA DE MONTIEL KM. 21","Izquierdo","L-S: 06:00-22:00; D: 06:00-15:00",39.257528,-2.613778,"REPSOL","18/11/2022","18/11/2022","Venta al Público",NA,1.889,1.949,NA,NA,1.492,NA,NA,1.749,1.869
"170",170,"ALBACETE","VILLARROBLEDO","AVENIDA REYES CATOLICOS, 133","Derecho","L-D: 06:00-23:00",39.277056,-2.591722,"BP VILLARROBLEDO","18/11/2022","18/11/2022","Venta al Público",NA,1.889,1.979,NA,NA,NA,NA,NA,1.749,1.891
"171",171,"ALBACETE","VILLARROBLEDO","AVENIDA REYES CATOLICOS, S/N","N","L-D: 06:00-22:00",39.276944,-2.590028,"AVIA","18/11/2022","16/11/2022","Venta al Público",NA,1.889,1.979,NA,NA,NA,NA,NA,1.749,1.899
"172",172,"ALBACETE","VILLARROBLEDO","CARRETERA MUNERA KM. 0,500","Izquierdo","L-D: 24H",39.250806,-2.601028,"VINICOLA DE VILLARROBLEDO","18/11/2022","17/11/2022","CERRADA AL PUBLICO GENERAL",NA,1.763,NA,NA,NA,1.337,NA,NA,1.715,NA
"173",173,"ALBACETE","VILLARROBLEDO","CALLE GENERAL MARTI, 2","Derecho","L-D: 24H",39.266417,-2.596944,"PLENOIL","18/11/2022","18/11/2022","Venta al Público",NA,1.767,NA,NA,NA,NA,NA,NA,1.647,NA
"174",174,"ALBACETE","VILLARROBLEDO","CARRETERA DE LAS MESAS KM. 005","N","L-D: 06:00-22:30",39.27225,-2.617083,"ESTACIÓN DE SERVICIO LOS VIÑEDOS","18/11/2022","18/11/2022","Venta al Público",NA,1.889,1.979,NA,NA,1.519,NA,NA,1.769,1.919
"175",175,"ALBACETE","VILLARROBLEDO","CALLE NOBEL, 64","N","L-S: 08:00-20:00",39.283917,-2.583361,"COMBUSTIBLES DISPROSIO S.L.","18/11/2022","15/11/2022","Venta al Público",NA,1.788,1.818,NA,NA,NA,NA,NA,1.721,NA
"176",176,"ALBACETE","VILLARROBLEDO","CALLE ARQUIMEDES, 62","N","L-S: 07:00-22:00",39.282167,-2.583778,"COMBUSTIBLES FIEL, S.L.","18/11/2022","18/11/2022","Venta al Público",NA,1.799,NA,NA,NA,1.499,NA,NA,1.699,NA
"177",177,"ALBACETE","VILLARROBLEDO","AVENIDA REYES CATOLICOS, 150","Derecho","L-D: 24H",39.278333,-2.590194,"PAÑALON","18/11/2022","14/11/2022","Venta al Público",NA,2.009,NA,NA,NA,NA,NA,NA,NA,NA
"178",178,"ALBACETE","YESTE","CARRETERA DE HELLIN KM. 42","Izquierdo","L-D: 07:00-21:00",38.368667,-2.314667,"CEPSA","18/11/2022","18/11/2022","Venta al Público",NA,1.916,1.976,NA,NA,NA,NA,NA,1.789,NA
"179",179,"ALICANTE","AGOST","AUTOPISTA AP 7 KM. 696","Derecho","L-D: 24H",38.406528,-0.599972,"GALP","18/11/2022","17/11/2022","Venta al Público",NA,1.909,1.999,NA,NA,NA,NA,NA,1.804,1.924
"180",180,"ALICANTE","AGOST","CARRETERA AGOST-NOVELDA KM 2 KM. 2","Izquierdo","L-D: 06:00-22:00",38.429417,-0.66225,"VALCARCE","18/11/2022","18/11/2022","Venta al Público",NA,1.919,1.988,NA,NA,1.698,NA,NA,1.799,1.9
"181",181,"ALICANTE","AGOST","AUTOPISTA AP 7 KM. 696","Izquierdo","L-D: 24H",38.408861,-0.599444,"GALP","18/11/2022","18/11/2022","Venta al Público",NA,1.889,1.979,NA,NA,NA,NA,NA,1.789,1.909
"182",182,"ALICANTE","AGOST","CARRETERA SAN VICENTE - AGOST KM. 11","Izquierdo","L-D: 06:00-22:00",38.434417,-0.63725,"PETRONOR","18/11/2022","18/11/2022","Venta al Público",NA,1.899,1.979,NA,NA,1.599,NA,NA,1.809,NA
"183",183,"ALICANTE","ALBATERA","CARRETERA N-340 KM. 696,7","Derecho","L-D: 24H",38.165222,-0.89475,"REPSOL","18/11/2022","18/11/2022","Venta al Público",NA,1.909,1.989,NA,NA,1.599,NA,NA,1.799,1.949
"184",184,"ALICANTE","ALBATERA","N-340 km 696,7","Izquierdo","L-D: 24H",38.199417,-0.848722,"REPSOL","18/11/2022","18/11/2022","Venta al Público",NA,1.909,1.989,NA,NA,NA,NA,NA,1.799,1.949
"185",185,"ALICANTE","ALBATERA","CARRETERA CATRAL-ALBATERA KM. 4,2","Izquierdo","L-D: 24H",38.175028,-0.854056,"REPSOL","18/11/2022","18/11/2022","Venta al Público",NA,1.919,2.019,1.379,1.299,1.597,NA,NA,1.789,1.949
"186",186,"ALICANTE","ALBATERA","CALLE POLIGONO INDUSTRIAL MOS DEL BOU, CALLE EL ESPARTO, 5","Derecho","L-D: 24H",38.168111,-0.889167,"SUVER GASOLEOS","18/11/2022","18/11/2022","Venta al Público",NA,1.879,1.949,NA,NA,NA,NA,NA,1.729,NA
"187",187,"ALICANTE","ALBATERA","CARRETERA N-340 KM. 702,1","Derecho","L-D: 06:00-22:00",38.199389,-0.848833,"FTH","18/11/2022","17/11/2022","Venta al Público",NA,1.899,1.969,NA,NA,NA,NA,NA,1.739,NA
"188",188,"ALICANTE","ALCALALI","POLIGONO PLAZA MOSQUERA, 6","Derecho","L-D: 24H",38.751972,-0.042083,"REPSOL","18/11/2022","16/11/2022","Venta al Público",NA,1.959,2.059,NA,NA,NA,NA,NA,1.859,NA
"189",189,"ALICANTE","ALCOY/ALCOI","CALLE ALICANTE, 62","Derecho","L-D: 05:00-23:00",38.688639,-0.479611,"SHELL","18/11/2022","18/11/2022","Venta al Público",NA,1.919,1.999,NA,NA,NA,NA,NA,1.779,1.919
"190",190,"ALICANTE","ALCOY/ALCOI","AVENIDA TIRANT, S/N","Derecho","L-D: 06:00-22:00",38.70875,-0.472556,"REPSOL","18/11/2022","18/11/2022","Venta al Público",NA,1.939,2.039,NA,NA,NA,NA,1.089,1.779,1.899
"191",191,"ALICANTE","ALCOY/ALCOI","N-340 km 131,000","N","L-D: 06:00-22:00",38.683389,-0.471306,"GALP","18/11/2022","17/11/2022","Venta al Público",NA,1.849,1.919,NA,NA,NA,NA,NA,1.679,1.799
"192",192,"ALICANTE","ALCOY/ALCOI","CL OLIVER, S.N.","Derecho","L-D: 06:00-22:00",38.691889,-0.489611,"PETRONOR","18/11/2022","17/11/2022","Venta al Público",NA,1.929,2.019,NA,NA,NA,NA,NA,1.799,1.909
"193",193,"ALICANTE","ALCOY/ALCOI","PG COTES BAIXES,CALLE C,PARC.1, 0","Derecho","L-D: 06:00-22:00",38.714361,-0.462528,"REPSOL","18/11/2022","18/11/2022","Venta al Público",NA,1.939,2.039,NA,NA,NA,NA,NA,1.779,1.899
"194",194,"ALICANTE","ALCOY/ALCOI","CALLE VALENCIA ESQ C/SANT JOAN BOSCO, 1","Derecho","L-D: 24H",38.711556,-0.46625,"GASEXPRESS","18/11/2022","17/11/2022","Venta al Público",NA,1.797,NA,NA,NA,NA,NA,NA,1.637,NA
"195",195,"ALICANTE","ALCOY/ALCOI","CALLE ALICANTE, 62","Derecho","L-D: 24H",38.689083,-0.479694,"MASOIL ALCOY","18/11/2022","16/11/2022","Venta al Público",NA,1.869,NA,NA,NA,NA,NA,1.059,1.699,NA
"196",196,"ALICANTE","ALCOY/ALCOI","Alicante, 1 - P.I. Beniata","N","L-D: 24H",38.695083,-0.477972,"GASOLINERA ALCOY","18/11/2022","18/11/2022","Venta al Público",NA,1.749,NA,NA,NA,NA,NA,NA,1.604,NA
"197",197,"ALICANTE","ALCOY/ALCOI","CALLE ALACANT, 101","Derecho","L-D: 24H",38.683806,-0.471194,"PLENOIL","18/11/2022","18/11/2022","Venta al Público",NA,1.767,NA,NA,NA,NA,NA,NA,1.617,NA
"198",198,"ALICANTE","ALFAS DEL PI (L')","AP-1535 km 2,000","N","L-D: 06:00-22:00",38.567722,-0.082972,"GALP","18/11/2022","17/11/2022","Venta al Público",NA,1.869,1.939,NA,NA,NA,NA,NA,1.779,1.909
"199",199,"ALICANTE","ALFAS DEL PI (L')","CALLE MALLORCA, CTRA. CV-763, 1","Derecho","L-D: 07:00-23:00",38.571139,-0.0965,"BP ALFAZ DEL PI","18/11/2022","18/11/2022","Venta al Público",NA,1.909,1.999,NA,NA,NA,NA,NA,1.809,1.951
"200",200,"ALICANTE","ALFAS DEL PI (L')","CL AVDA. DEL PAIS VALENCIANO S.N.","Derecho","L-D: 06:00-22:00",38.581361,-0.105389,"REPSOL","18/11/2022","18/11/2022","Venta al Público",NA,1.899,1.999,NA,NA,NA,NA,NA,1.789,1.949
"201",201,"ALICANTE","ALFAS DEL PI (L')","AVENIDA ALBIR, 90","Derecho","L-D: 24H",38.574028,-0.076694,"PLENOIL","18/11/2022","18/11/2022","Venta al Público",NA,1.787,NA,NA,NA,NA,NA,NA,1.677,NA
"202",202,"ALICANTE","ALFAS DEL PI (L')","AVENIDA PAIS VALENCIÁ, 47","Derecho","L-D: 24H",38.582417,-0.106278,"PLENOIL","18/11/2022","18/11/2022","Venta al Público",NA,1.787,NA,NA,NA,NA,NA,NA,1.677,NA
"203",203,"ALICANTE","ALGODA-MATOLA","CARRETERA CV-875 KM. 6,2","Derecho","L-S: 07:00-22:00; D: 08:00-15:00",38.216611,-0.761417,"CEPSA","18/11/2022","15/11/2022","Venta al Público",NA,1.849,1.901,NA,NA,1.495,NA,NA,1.761,NA
"204",204,"ALICANTE","ALGORFA","POLIGONO SECTOR VIII - EL ZOCO, S/N","N","L-D: 06:00-22:00",38.058389,-0.746611,"BP","18/11/2022","17/11/2022","Venta al Público",NA,1.955,2.045,NA,NA,NA,NA,NA,1.835,1.977
"205",205,"ALICANTE","ALGUEÑA","CALLE SAN JUAN, 32","Derecho","L-D: 06:30-21:00",38.339222,-0.998222,"CEPSA","18/11/2022","18/11/2022","Venta al Público",NA,1.899,1.979,NA,NA,1.509,NA,NA,1.769,NA
"206",206,"ALICANTE","ALICANTE/ALACANT","POLIGONO PLA VALLONGA CALLE 8, PARCELA 15","Derecho","L-V: 06:00-21:00; S: 07:00-15:00",38.34825,-0.555389,"PETROALACANT","18/11/2022","18/11/2022","Venta al Público",NA,1.888,1.962,NA,NA,1.589,NA,NA,1.768,1.892
"207",207,"ALICANTE","ALICANTE/ALACANT","AVENIDA NEPTUNO, 4","Derecho","L-V: 06:00-22:00; S: 07:00-15:00",38.344,-0.524194,"CONFORT AUTO","18/11/2022","18/11/2022","Venta al Público",NA,1.907,1.999,NA,NA,NA,NA,NA,1.789,1.899
"208",208,"ALICANTE","ALICANTE/ALACANT","CARRETERA MADRID ESQ.RIO JUCAR KM. 19","Derecho","L-V: 06:00-22:00; S-D: 07:00-21:00",38.344611,-0.522944,"REPSOL","18/11/2022","18/11/2022","Venta al Público",NA,1.909,1.969,NA,NA,NA,NA,1.069,1.769,1.899
"209",209,"ALICANTE","ALICANTE/ALACANT","AVENIDA JIJONA, 88","Derecho","L-S: 06:30-22:30; D: 07:00-22:30",38.358556,-0.483944,"REPSOL","18/11/2022","18/11/2022","Venta al Público",NA,1.889,1.969,NA,NA,NA,NA,NA,1.779,1.919
"210",210,"ALICANTE","ALICANTE/ALACANT","AVENIDA NOVELDA, 179","Derecho","L-D: 07:00-00:00",38.370222,-0.4975,"REPSOL","18/11/2022","18/11/2022","Venta al Público",NA,1.889,1.959,NA,NA,NA,NA,NA,1.779,1.909
"211",211,"ALICANTE","ALICANTE/ALACANT","AVENIDA PADRE ESPLÁ, 36","N","L-V: 07:30-21:00; S: 08:00-15:00; D: 09:30-14:30",38.357,-0.47675,"REPSOL","18/11/2022","18/11/2022","Venta al Público",NA,1.889,NA,NA,NA,NA,NA,NA,1.779,NA
"212",212,"ALICANTE","ALICANTE/ALACANT","AVENIDA DE LA UNIVERSIDAD, SN","Derecho","L-D: 24H",38.376194,-0.508861,"REPSOL","18/11/2022","18/11/2022","Venta al Público",NA,1.899,1.979,NA,NA,NA,NA,1.069,1.779,1.909
"213",213,"ALICANTE","ALICANTE/ALACANT","CARRETERA A-214 KM. 5","Izquierdo","L-D: 06:00-22:00",38.401,-0.47775,"REPSOL","18/11/2022","18/11/2022","Venta al Público",NA,1.889,1.969,NA,NA,NA,NA,NA,1.779,1.929
"214",214,"ALICANTE","ALICANTE/ALACANT","N-330-P.K. 409,1 P.I. El Espartal","N","L-V: 06:00-20:00; S: 08:00-14:00",38.34525,-0.520556,"GALP","18/11/2022","15/11/2022","Venta al Público",NA,1.919,2.009,NA,NA,NA,NA,NA,1.809,1.949
"215",215,"ALICANTE","ALICANTE/ALACANT","CARRETERA N-330 KM. 409","Izquierdo","L-D: 06:30-21:00",38.344944,-0.523167,"PETRONOR","18/11/2022","18/11/2022","Venta al Público",NA,1.909,1.969,NA,NA,NA,NA,NA,1.769,1.899
"216",216,"ALICANTE","ALICANTE/ALACANT","AVENIDA RAMÓN GÓMEZ SEMPERE, 4","N","L-D: 06:00-22:00",38.330583,-0.5135,"GALP","18/11/2022","15/11/2022","Venta al Público",NA,1.919,2.009,NA,NA,NA,NA,NA,1.809,1.949
"217",217,"ALICANTE","ALICANTE/ALACANT","Rosa de los Vientos (esq. Camino Viejo de Elche)","N","L-V: 06:00-20:00; S: 08:00-14:00",38.337778,-0.523139,"GALP","18/11/2022","15/11/2022","Venta al Público",NA,1.919,2.009,NA,NA,NA,NA,NA,1.809,1.949
"218",218,"ALICANTE","ALICANTE/ALACANT","AVENIDA UNIVERSIDAD, S/N","N","L-D: 24H",38.374139,-0.506833,"SHELL","18/11/2022","18/11/2022","Venta al Público",NA,1.839,1.919,NA,NA,NA,NA,0.969,1.739,1.879
"219",219,"ALICANTE","ALICANTE/ALACANT","CARRETERA N-330A KM. 407,7","Derecho","L-V: 05:00-21:00; S: 07:00-14:00",38.343611,-0.545111,"CEPSA","18/11/2022","18/11/2022","Venta al Público",NA,1.909,1.981,NA,NA,NA,NA,NA,1.789,NA
"220",220,"ALICANTE","ALICANTE/ALACANT","AVENIDA ELCHE (N-332 P.K. 102), 16","Izquierdo","L-D: 24H",38.337778,-0.500389,"CEPSA","18/11/2022","18/11/2022","Venta al Público",NA,1.895,1.995,NA,NA,NA,NA,NA,1.769,NA
"221",221,"ALICANTE","ALICANTE/ALACANT","CALLE DEL RUBLO PARC R75, 75","N","L-V: 06:00-22:00; S: 07:00-14:00",38.338278,-0.566472,"ATALAYAS","18/11/2022","17/11/2022","Venta al Público",NA,1.909,2.229,NA,NA,NA,NA,NA,1.799,NA
"222",222,"ALICANTE","ALICANTE/ALACANT","AVDA. DE LA CONDOMINA, 47 (C-190 km 3,7)","Derecho","L-D: 24H",38.363639,-0.434556,"CEPSA","18/11/2022","18/11/2022","Venta al Público",NA,1.895,1.995,NA,NA,NA,NA,NA,1.769,NA
"223",223,"ALICANTE","ALICANTE/ALACANT","VIAL CONEXION N-332 Y A-7, S/N","N","L-D: 06:00-22:00",38.37,-0.446667,"GALP","18/11/2022","18/11/2022","Venta al Público",NA,1.899,1.989,NA,NA,NA,NA,NA,1.799,1.939
"224",224,"ALICANTE","ALICANTE/ALACANT","CALLE FORTUNY, S/N","Izquierdo","L-V: 07:30-21:30; S-D: 08:30-14:30",38.375333,-0.499444,"REPSOL","18/11/2022","18/11/2022","Venta al Público",NA,1.889,1.969,NA,NA,NA,NA,NA,1.779,1.909
"225",225,"ALICANTE","ALICANTE/ALACANT","CARRETERA OCAÑA KM. 7","Izquierdo","L-D: 24H",38.344917,-0.518333,"PETRO ALACANT","18/11/2022","18/11/2022","Venta al Público",NA,1.899,1.962,NA,NA,NA,NA,0.968,1.768,1.892
"226",226,"ALICANTE","ALICANTE/ALACANT","CALLE JATIVA, S/N","Derecho","L-D: 24H",38.377722,-0.504722,"GM OIL","18/11/2022","18/11/2022","Venta al Público",NA,1.719,NA,NA,NA,NA,NA,NA,1.619,NA
"227",227,"ALICANTE","ALICANTE/ALACANT","AVDA. ORIHUELA, S/N - ESQUINA VIA PARQUE","N","L-D: 06:00-00:00",38.345583,-0.517889,"SHELL","18/11/2022","18/11/2022","Venta al Público",NA,1.884,1.964,NA,NA,NA,NA,0.969,1.759,1.899
"228",228,"ALICANTE","ALICANTE/ALACANT","AVENIDA ALCALDE LORENZO CARBONELL, 71","Izquierdo","L-D: 06:00-22:00",38.338611,-0.516,"CEPSA","18/11/2022","18/11/2022","Venta al Público",NA,1.895,1.995,NA,NA,NA,NA,NA,1.769,NA
"229",229,"ALICANTE","ALICANTE/ALACANT","CALLE ALCALDE LORENZO CARBONELL, S/N ESQUINA VIA PARQUE, S/N","N","L-D: 24H",38.340028,-0.51775,"CARREFOUR","18/11/2022","18/11/2022","Venta al Público",NA,1.899,1.939,NA,NA,NA,NA,NA,1.769,NA
"230",230,"ALICANTE","ALICANTE/ALACANT","AVENIDA ANTONIO RAMOS CARRATALA, 56","N","L-D: 24H",38.370694,-0.466806,"ALCAMPO","18/11/2022","17/11/2022","Venta al Público",NA,1.797,1.837,NA,NA,NA,NA,NA,1.597,1.858
"231",231,"ALICANTE","ALICANTE/ALACANT","AVENIDA GASTON CASTELLO, 58","Derecho","L-D: 07:00-21:00",38.375111,-0.486944,"CEPSA","18/11/2022","14/11/2022","Venta al Público",NA,1.949,2.015,NA,NA,NA,NA,NA,1.819,NA
"232",232,"ALICANTE","ALICANTE/ALACANT","CALLE MUSICO JOSE TORREGROSA, 33","Derecho","L-D: 24H",38.383583,-0.48975,"AVANZA","18/11/2022","18/11/2022","Venta al Público",NA,1.738,NA,NA,NA,NA,NA,NA,1.638,NA
"233",233,"ALICANTE","ALICANTE/ALACANT","AVENIDA ELCHE, 150","Izquierdo","L-D: 24H",38.303611,-0.521389,"PETROPRIX","18/11/2022","18/11/2022","Venta al Público",NA,1.819,NA,NA,NA,NA,NA,NA,1.699,NA
"234",234,"ALICANTE","ALICANTE/ALACANT","AVENIDA NOVELDA, 216","Derecho","L-D: 24H",38.376944,-0.499722,"PETROPRIX","18/11/2022","18/11/2022","Venta al Público",NA,1.765,NA,NA,NA,NA,NA,NA,1.687,NA
"235",235,"ALICANTE","ALICANTE/ALACANT","CALLE OCAÑA, 16","Derecho","L-D: 24H",38.345056,-0.522278,"BALLENOIL","18/11/2022","18/11/2022","Venta al Público",NA,1.799,NA,NA,NA,NA,NA,NA,1.699,NA
"236",236,"ALICANTE","ALICANTE/ALACANT","CL PLAZA SAN ANTONIO, 9","Derecho","L-V: 08:00-21:00; S-D: 09:00-14:00",38.351361,-0.487472,"REPSOL","18/11/2022","18/11/2022","Venta al Público",NA,1.889,NA,NA,NA,NA,NA,NA,1.779,NA
"237",237,"ALICANTE","ALICANTE/ALACANT","VIAL FLORA DE ESPAÑA, 28","N","L-D: 06:30-22:00",38.369111,-0.444778,"PETROALACANT","18/11/2022","18/11/2022","Venta al Público",NA,1.888,1.962,NA,NA,NA,NA,0.968,1.768,1.892
"238",238,"ALICANTE","ALICANTE/ALACANT","AVENIDA DENIA, 150","Derecho","L-D: 07:00-23:00",38.375472,-0.453806,"BP VISTAHERMOSA","18/11/2022","18/11/2022","Venta al Público",NA,1.899,1.989,NA,NA,NA,NA,NA,1.799,1.941
"239",239,"ALICANTE","ALICANTE/ALACANT","AVENIDA PINTOR GASTON CASTELLO, 1","Izquierdo","L-D: 06:00-22:00",38.370083,-0.486611,"BP REJAS VERDES","18/11/2022","18/11/2022","Venta al Público",NA,1.899,1.989,NA,NA,NA,NA,NA,1.799,1.941
"240",240,"ALICANTE","ALICANTE/ALACANT","CALLE ARTES GRAFICAS, 89","N","L-D: 24H",38.335694,-0.512833,"TAMOIL","18/11/2022","14/11/2022","Venta al Público",1.888,1.908,NA,NA,NA,NA,NA,NA,1.788,1.918
"241",241,"ALICANTE","ALICANTE/ALACANT","AVENIDA DENIA, 80","Derecho","L-D: 24H",38.359278,-0.466972,"BP SANDOVAL MD","18/11/2022","18/11/2022","Venta al Público",NA,1.899,1.989,NA,NA,NA,NA,NA,1.799,1.941
"242",242,"ALICANTE","ALICANTE/ALACANT","AVENIDA DENIA, 75","Izquierdo","L-D: 24H",38.359667,-0.467361,"BP SANDOVAL MI","18/11/2022","18/11/2022","Venta al Público",NA,1.899,1.989,NA,NA,NA,NA,NA,1.799,1.941
"243",243,"ALICANTE","ALICANTE/ALACANT","AVENIDA NOVELDA, 204","Derecho","L-D: 24H",38.375972,-0.498972,"VCC ALICANTE","18/11/2022","14/11/2022","Venta al Público",NA,1.898,NA,NA,NA,NA,NA,NA,1.718,NA
"244",244,"ALICANTE","ALICANTE/ALACANT","CARRETERA BACAROT, 4 KM.","Derecho","L-V: 08:00-14:00 y 16:00-18:00; S: 08:00-12:00",38.343333,-0.545833,"AGRICOOP","18/11/2022","14/11/2022","CERRADA AL PUBLICO GENERAL",NA,NA,NA,NA,NA,1.45,NA,NA,NA,NA
"245",245,"ALICANTE","ALICANTE/ALACANT","AVENIDA DENIA, 60","N","L-D: 24H",38.355389,-0.472306,"GOTETA","18/11/2022","17/11/2022","Venta al Público",NA,1.899,1.999,NA,NA,NA,NA,1.025,1.789,1.939
"246",246,"ALICANTE","ALICANTE/ALACANT","CALLE ANTONIO RAMOS CARRATALÁ, 26","Derecho","L-D: 24H",38.369528,-0.464028,"PLENOIL","18/11/2022","18/11/2022","Venta al Público",NA,1.787,NA,NA,NA,NA,NA,NA,1.587,NA
"247",247,"ALICANTE","ALICANTE/ALACANT","AVENIDA DEL EURO, 9","Derecho","L-D: 24H",38.340861,-0.57275,"PARCELOGIC","18/11/2022","14/11/2022","Venta al Público",NA,1.929,NA,NA,NA,NA,NA,NA,1.767,NA
"248",248,"ALICANTE","ALICANTE/ALACANT","CALLE COMUNICACIONES, DE LAS, 10","N","L-D: 08:00-23:00",38.336083,-0.517389,"ALSA","18/11/2022","14/11/2022","CERRADA AL PUBLICO GENERAL",NA,1.9,NA,NA,NA,NA,NA,NA,NA,NA
"249",249,"ALICANTE","ALICANTE/ALACANT","AVENIDA NOVELDA, 74","Derecho","L-D: 24H",38.363667,-0.494278,"GASEXPRESS ALICANTE","18/11/2022","17/11/2022","Venta al Público",NA,1.749,NA,NA,NA,NA,NA,NA,1.639,NA
"250",250,"ALICANTE","ALICANTE/ALACANT","CALLE BULEVAR TEULADA, 86","Izquierdo","L-D: 24H",38.364194,-0.499917,"AVANZA LOW COST","18/11/2022","18/11/2022","Venta al Público",NA,1.738,NA,NA,NA,NA,NA,NA,1.638,NA
"251",251,"ALICANTE","ALICANTE/ALACANT","AVENIDA DENIA, 37","Derecho","L-D: 24H",38.373806,-0.454528,"PLENOIL","18/11/2022","18/11/2022","Venta al Público",NA,1.697,NA,NA,NA,NA,NA,NA,1.597,NA
"252",252,"ALICANTE","ALMORADI","AVENIDA COMUNIDAD EUROPEA, 1","Derecho","L-D: 06:30-22:30",38.099361,-0.796528,"LAS MAROMAS","18/11/2022","16/11/2022","Venta al Público",NA,1.799,1.869,NA,NA,1.549,NA,NA,1.739,1.889
"253",253,"ALICANTE","ALMORADI","AVENIDA ORIHUELA, 17","N","L-D: 06:00-00:00",38.104778,-0.797083,"REPSOL","18/11/2022","18/11/2022","Venta al Público",NA,1.919,2.009,NA,NA,1.629,NA,NA,1.819,1.949
"254",254,"ALICANTE","ALMORADI","CARRETERA C-3321 KM. 38,1","Izquierdo","L-D: 06:00-22:00",38.123556,-0.781806,"CEPSA","18/11/2022","18/11/2022","Venta al Público",NA,1.899,1.999,NA,NA,1.549,NA,NA,1.774,NA
"255",255,"ALICANTE","ALMORADI","CALLE PARTIDA DE LA ERA ALTA, 57","Izquierdo","L-D: 24H",38.122583,-0.783083,"PETROPRIX","18/11/2022","18/11/2022","Venta al Público",NA,1.789,NA,NA,NA,NA,NA,NA,1.715,NA
"256",256,"ALICANTE","ALMORADI","Principe De EspañA, 10","N","L-V: 06:00-22:00; S-D: 07:00-22:00",38.115139,-0.78875,"BP","18/11/2022","17/11/2022","Venta al Público",NA,1.969,2.059,NA,NA,NA,NA,NA,1.829,1.971
"257",257,"ALICANTE","ALMORADI","CARRETERA DE ROJALES KM. 1","Derecho","L-S: 06:00-22:00; D: 07:00-21:00",38.103833,-0.781472,"GASOLEO EXPRES","18/11/2022","18/11/2022","Venta al Público",NA,1.799,1.869,NA,NA,NA,NA,NA,1.719,NA
"258",258,"ALICANTE","ALTEA","CARRETERA N-332 KM. 155,5","Izquierdo","L-D: 06:00-22:00",38.586556,-0.064694,"REPSOL","18/11/2022","18/11/2022","Venta al Público",NA,1.899,1.999,NA,NA,NA,NA,NA,1.809,1.969
"259",259,"ALICANTE","ALTEA","CARRETERA LA NUCIA KM. 2,8","Derecho","L: 07:00-22:00",38.605917,-0.078472,"REPSOL","18/11/2022","18/11/2022","Venta al Público",NA,1.899,1.999,NA,NA,NA,NA,NA,1.809,1.969
"260",260,"ALICANTE","ALTEA","CALLE GARGANES, 42","Derecho","L-D: 06:00-00:00",38.604722,-0.048611,"REPSOL","18/11/2022","18/11/2022","Venta al Público",NA,1.909,2.009,NA,NA,NA,NA,NA,1.819,1.979
"261",261,"ALICANTE","ALTEA","Carrer De La Mar, 157","N","L-D: 07:00-23:00",38.593222,-0.054917,"GALP","18/11/2022","18/11/2022","Venta al Público",NA,1.899,1.989,NA,NA,NA,NA,NA,1.799,1.939
"262",262,"ALICANTE","ALTEA","CALLE CUESTA DE LAS NARICES, 11","Izquierdo","L-D: 24H",38.594194,-0.056056,"PETROPRIX","18/11/2022","18/11/2022","Venta al Público",NA,1.799,NA,NA,NA,NA,NA,NA,1.719,NA
"263",263,"ALICANTE","ALTEA LA VELLA","CARRETERA CV-755 KM. 9,2","Izquierdo","L-D: 06:00-22:00",38.62675,-0.0385,"CEPSA ELF","18/11/2022","18/11/2022","Venta al Público",NA,1.948,1.998,NA,NA,NA,NA,NA,1.839,1.965
"264",264,"ALICANTE","ALTET (EL)","AVENIDA CARTAGENA DE, 59","N","L-D: 24H",38.276,-0.538778,"REPSOL","18/11/2022","18/11/2022","Venta al Público",NA,1.939,2.009,NA,NA,NA,NA,NA,1.829,2.009
"265",265,"ALICANTE","ALTET (EL)","AVENIDA AEROPUERTO DEL TORRELLANO, 125","N","L: 24H",38.287472,-0.563472,"PETROALACANT","18/11/2022","18/11/2022","Venta al Público",NA,1.939,NA,NA,NA,1.589,NA,NA,NA,NA
"266",266,"ALICANTE","ALTET (EL)","CARRETERA ELCHE-ALTET KM. 10,1","Derecho","L-D: 06:00-23:00",38.278861,-0.562944,"FTH","18/11/2022","17/11/2022","Venta al Público",NA,1.919,1.999,NA,NA,NA,NA,NA,1.799,1.899
"267",267,"ALICANTE","ARNEVA","CALLE EL PINAR, 9","N","L: 06:00-22:00",38.055694,-0.937139,"EL TANQUE","18/11/2022","17/11/2022","Venta al Público",NA,1.949,NA,NA,NA,1.579,NA,NA,1.799,1.929
"268",268,"ALICANTE","ASPE","CARRETERA NOVELDA KM. 22","Derecho","L-V: 06:00-22:00; S: 08:00-15:00",38.358167,-0.770917,"CONFORT AUTO","18/11/2022","18/11/2022","Venta al Público",NA,1.923,1.999,NA,NA,NA,NA,NA,1.794,1.928
"269",269,"ALICANTE","ASPE","POLIGONO C/ IBI, S/N","Derecho","L-S: 06:00-22:00",38.356139,-0.770417,"LEVANTINA","18/11/2022","16/11/2022","Venta al Público",NA,1.949,1.995,NA,NA,NA,NA,NA,1.795,NA
"270",270,"ALICANTE","ASPE","AVENIDA 3 DE AGOSTO, 23","Derecho","L-D: 06:00-22:00",38.336722,-0.774111,"REPSOL","18/11/2022","16/11/2022","Venta al Público",NA,1.949,1.995,NA,NA,1.579,NA,NA,1.795,1.945
"271",271,"ALICANTE","ASPE","AVD.DE NAVARRA 151","N","L-D: 07:00-22:00",38.354028,-0.772639,"CEPSA ESPAÑA S.A.","18/11/2022","14/11/2022","Venta al Público",NA,1.958,1.998,NA,NA,NA,NA,NA,1.798,1.948
"272",272,"ALICANTE","ASPE","POLIGONO TRES HERMANAS   ALCOHOLERA, 11","N","L-S: 06:00-22:00; D: 07:00-15:00",38.325917,-0.767139,"BP","18/11/2022","18/11/2022","Venta al Público",NA,1.939,2.029,NA,NA,NA,NA,NA,1.799,1.951
"273",273,"ALICANTE","ASPE","CARRETERA NOVELDA KM. 8","Derecho","L-D: 24H",38.356306,-0.772361,"QFS","18/11/2022","15/11/2022","Venta al Público",NA,1.859,NA,NA,NA,NA,NA,NA,1.729,NA
"274",274,"ALICANTE","ASPE","AVENIDA AVENIDA DE ORIHUELA, 101","N","L-D: 24H",38.336861,-0.777556,"GALP","18/11/2022","17/11/2022","Venta al Público",NA,1.949,NA,NA,NA,NA,NA,NA,1.799,NA
"275",275,"ALICANTE","ASPE","AVENIDA TRES DE AGOSTO, 20","Derecho","L-D: 24H",38.341583,-0.773361,"PLENOIL","18/11/2022","18/11/2022","Venta al Público",NA,1.847,NA,NA,NA,NA,NA,NA,1.695,NA
"276",276,"ALICANTE","BACAROT (EL)","POLIGONO ZONA INDUSTRIAL A, POLIGONO B, S/N","Derecho","L-D: 24H",38.344139,-0.538472,"CEPSA","18/11/2022","18/11/2022","Venta al Público",NA,1.895,1.975,NA,NA,1.559,NA,NA,1.759,NA
"277",277,"ALICANTE","BANYERES DE MARIOLA","CALLE PADRE JESUALDO FERRERO, 1","N","L-D: 06:00-22:00",38.715917,-0.664056,"REPSOL","18/11/2022","17/11/2022","Venta al Público",NA,1.899,1.979,NA,NA,NA,NA,NA,1.799,NA
"278",278,"ALICANTE","BANYERES DE MARIOLA","CALLE LES MOLINES, 35,","N","L-V: 07:00-13:00",38.720111,-0.671194,"BAÑERES","18/11/2022","14/11/2022","Venta al Público",NA,1.899,2.009,NA,NA,NA,NA,NA,1.749,1.959
"279",279,"ALICANTE","BENEIXAMA","CALLE DR. SILVESTRE,","N","L-D: 24H",38.701889,-0.76775,"COOPERATIVA DIVINA AURORA","18/11/2022","15/11/2022","Venta al Público",NA,1.899,NA,NA,NA,1.539,NA,NA,1.759,NA
"280",280,"ALICANTE","BENEIXAMA","CARRETERA VILLENA-ALCUDIA KM. 10,608","Derecho","L-D: 06:00-22:00",38.698,-0.771194,"GASOLINERA DIEGO","18/11/2022","18/11/2022","Venta al Público",NA,1.869,NA,NA,NA,1.549,NA,NA,1.749,1.889
"281",281,"ALICANTE","BENEJUZAR","CARRETERA JACARILLA KM. S/N","Izquierdo","L-D: 06:00-22:00",38.076944,-0.843056,"REPSOL","18/11/2022","15/11/2022","Venta al Público",NA,1.979,2.049,NA,NA,1.659,NA,NA,1.849,1.899
"282",282,"ALICANTE","BENIDORM","CARRETERA CV-70 KM. 47","Izquierdo","L-D: 24H",38.559583,-0.134444,"REPSOL","18/11/2022","18/11/2022","Venta al Público",NA,1.909,2.009,NA,NA,NA,NA,1.099,1.809,1.969
"283",283,"ALICANTE","BENIDORM","CARRETERA N-332 KM. 124,5","Izquierdo","L-D: 06:00-22:00",38.558056,-0.101917,"GALP","18/11/2022","18/11/2022","Venta al Público",NA,1.859,1.929,NA,NA,NA,NA,NA,1.759,1.899
"284",284,"ALICANTE","BENIDORM","AVENIDA COMUNIDAD VALENCIANA, 18","Derecho","L-D: 24H",38.544194,-0.11925,"BP BENIDORM","18/11/2022","18/11/2022","Venta al Público",NA,1.909,1.999,NA,NA,NA,NA,NA,1.809,1.951
"285",285,"ALICANTE","BENIDORM","CARRETERA N-332 KM. 124,5","Derecho","L-D: 06:00-22:00",38.557694,-0.1015,"GALP","18/11/2022","18/11/2022","Venta al Público",NA,1.859,1.929,NA,NA,NA,NA,NA,1.759,1.899
"286",286,"ALICANTE","BENIDORM","AVENIDA JAIME I, 23","N","L-D: 24H",38.541722,-0.134139,"BP LA ISLETA","18/11/2022","18/11/2022","Venta al Público",NA,1.909,1.999,NA,NA,NA,NA,NA,1.809,1.951
"287",287,"ALICANTE","BENIDORM","AVENIDA DOCTOR SEVERO OCHOA, S/N","N","L-D: 07:00-23:00",38.543139,-0.102722,"BP EUROBENIDORM","18/11/2022","18/11/2022","Venta al Público",NA,1.909,1.999,NA,NA,NA,NA,NA,1.809,1.951
"288",288,"ALICANTE","BENIDORM","AVENIDA COMUNIDAD VALENCIANA- CAMÍ DEL PALASIET, 2","N","L-D: 24H",38.551139,-0.109778,"PETROENERGY","18/11/2022","17/11/2022","Venta al Público",NA,1.799,NA,NA,NA,NA,NA,NA,1.709,NA
"289",289,"ALICANTE","BENIDORM","POLIGONO APR 3, 68","Derecho","L-D: 24H",38.558833,-0.100972,"VCC ANOUER","18/11/2022","14/11/2022","Venta al Público",NA,1.858,NA,NA,NA,NA,NA,NA,1.718,NA
"290",290,"ALICANTE","BENIJOFAR","CALLE ALCALDE FRANCISCO GONZALEZ FERNANDEZ, 32","N","L-D: 24H",38.077222,-0.745028,"BENIEXPRESS","18/11/2022","16/11/2022","Venta al Público",NA,1.859,NA,NA,NA,NA,NA,NA,1.659,NA
"291",291,"ALICANTE","BENISSA","AVENIDA PAIS VALENCIA, 210","Izquierdo","L: 07:00-21:00",38.713389,0.046556,"REPSOL","18/11/2022","18/11/2022","Venta al Público",NA,1.889,NA,NA,NA,NA,NA,NA,1.789,NA
"292",292,"ALICANTE","BENISSA","CALLE MARGENADORS DELS, 8","N","L-S: 08:00-20:00",38.718611,0.059389,"ROSELLO","18/11/2022","18/11/2022","Venta al Público",NA,1.795,NA,NA,NA,NA,NA,NA,1.697,NA
"293",293,"ALICANTE","BENISSA","AVENIDA EUROPA, 8","Derecho","L-D: 06:00-22:00",38.718139,0.060194,"BP BENISSA","18/11/2022","18/11/2022","Venta al Público",NA,1.899,1.989,NA,NA,NA,NA,NA,1.809,1.951
"294",294,"ALICANTE","BENISSA","AVENIDA LAS MARINAS, 290","Derecho","L-D: 07:00-22:00",38.665889,0.084944,"BP CALA FUSTERA","18/11/2022","18/11/2022","Venta al Público",NA,1.949,2.039,NA,NA,NA,NA,NA,1.869,2.011
"295",295,"ALICANTE","BENISSA","JUAN DE LA CIERVA,13  POLIGONO INDUSRTIAL LAPEDRERA,","N","L: 07:00-21:00",38.72675,0.076583,"MEROIL","18/11/2022","16/11/2022","Venta al Público",NA,1.889,1.959,NA,NA,NA,NA,1.099,1.779,1.909
"296",296,"ALICANTE","BENISSA","AVINGUDA EUROPA, 34","Derecho","L-D: 24H",38.719222,0.060556,"MASOIL BENISA","18/11/2022","16/11/2022","Venta al Público",NA,1.889,NA,NA,NA,NA,NA,1.059,1.719,NA
"297",297,"ALICANTE","BENISSA","AVENIDA EUROPA, 12","Derecho","L-D: 24H",38.717667,0.059861,"PLENOIL","18/11/2022","18/11/2022","Venta al Público",NA,1.779,NA,NA,NA,NA,NA,NA,1.677,NA
"298",298,"ALICANTE","BENISSA","CARRETERA MORAIRA-CALPE KM. 3","Derecho","L-D: 24H",38.677722,0.105778,"VCC BENISSA","18/11/2022","14/11/2022","Venta al Público",NA,1.898,NA,NA,NA,NA,NA,NA,1.748,NA
"299",299,"ALICANTE","BENITACHELL","CARRETERA CV-740 KM. 6,800","Izquierdo","L-D: 07:00-22:00",38.738972,0.152139,"(SIN RÓTULO)","18/11/2022","16/11/2022","Venta al Público",NA,1.859,NA,NA,NA,NA,NA,1.049,1.769,1.919
"300",300,"ALICANTE","BIAR","CARRETERA ALCOY - VILLENA KM. 38,2","Izquierdo","L-V: 07:00-21:30; S: 07:00-15:30",38.630583,-0.786556,"REPSOL","18/11/2022","18/11/2022","Venta al Público",NA,1.909,1.979,NA,NA,1.599,NA,NA,1.819,1.919
"301",301,"ALICANTE","BIGASTRO","CALLE DEL PROGRESO, 24","Derecho","L-D: 24H",38.059056,-0.884611,"BIGASOIL","18/11/2022","16/11/2022","Venta al Público",NA,1.849,NA,NA,NA,NA,NA,NA,1.739,NA
"302",302,"ALICANTE","BIGASTRO","POLIGONO APATEL, 6","Derecho","L-D: 06:00-22:00",38.059194,-0.885222,"REPSOL","18/11/2022","18/11/2022","Venta al Público",NA,1.909,1.999,NA,NA,NA,NA,NA,1.829,1.999
"303",303,"ALICANTE","BIGASTRO","POLIGONO SECTOR D10, 8","Derecho","L-D: 24H",38.064833,-0.897833,"PLENOIL","18/11/2022","18/11/2022","Venta al Público",NA,1.799,NA,NA,NA,NA,NA,NA,1.699,NA
"304",304,"ALICANTE","BOQUERES","AVENIDA ALICANTE, 79","N","L-V: 06:00-22:00; S-D: 07:00-22:00",38.388472,-0.511833,"BP","18/11/2022","14/11/2022","Venta al Público",NA,1.939,2.029,NA,NA,NA,NA,NA,1.819,1.961
"305",305,"ALICANTE","BUSOT","CALLE EL PI, 1","Izquierdo","L-D: 24H",38.477806,-0.424194,"ATLANTIS EXPRESS","18/11/2022","17/11/2022","Venta al Público",NA,1.889,NA,NA,NA,NA,NA,NA,1.789,NA
"306",306,"ALICANTE","CALLOSA D'EN SARRIA","CALLE SAN ISIDRO, 10","Derecho","L-D: 07:00-22:00",38.6495,-0.121194,"REPSOL","18/11/2022","18/11/2022","Venta al Público",NA,1.909,1.999,NA,NA,1.589,NA,NA,1.829,1.979
"307",307,"ALICANTE","CALLOSA DE SEGURA","CARRETERA N-340 KM. 692,9","Derecho","L-V: 06:00-22:00; S: 07:00-15:00; D: 08:00-14:00",38.143139,-0.927583,"PETRONOR","18/11/2022","16/11/2022","Venta al Público",NA,1.939,2.029,NA,NA,NA,NA,NA,1.809,NA
"308",308,"ALICANTE","CALLOSA DE SEGURA","CARRETERA CATRAL KM. 0,300","Derecho","L-V: 06:00-22:00; S-D: 07:00-22:00",38.12775,-0.861861,"BP OIL ESPAÑA, S.A.U.","18/11/2022","17/11/2022","Venta al Público",NA,1.929,2.019,NA,NA,NA,NA,NA,1.799,1.941
"309",309,"ALICANTE","CALLOSA DE SEGURA","CARRETERA CV913 KM. 1","Derecho","L-D: 06:00-22:00",38.125694,-0.867333,"REPSOL","18/11/2022","17/11/2022","Venta al Público",NA,1.939,1.999,NA,NA,NA,NA,NA,1.799,1.919
"310",310,"ALICANTE","CALLOSA DE SEGURA","BARRIO SAN JOSE DRCHA, 70","Derecho","L-D: 07:30-21:30",38.130583,-0.858917,"RITOR DIESEL","18/11/2022","18/11/2022","Venta al Público",NA,1.839,1.869,NA,NA,NA,NA,NA,1.769,NA
"311",311,"ALICANTE","CALPE","CALLE L ESPORT, 2","Derecho","L-D: 24H",38.645444,0.050278,"REPSOL","18/11/2022","18/11/2022","Venta al Público",NA,1.889,1.979,NA,NA,NA,NA,NA,1.809,2.029
"312",312,"ALICANTE","CALPE","PARTIDA ESTACION II, 6","Derecho","L-D: 24H",38.653028,0.037306,"CALPE AUTOMOCION","18/11/2022","18/11/2022","Venta al Público",NA,1.819,1.869,NA,NA,NA,NA,NA,1.729,1.849
"313",313,"ALICANTE","CALPE","PARTIDA ESTACION II, 6","Izquierdo","L-D: 24H",38.652972,0.037806,"CALPE AUTOMOCION II","18/11/2022","17/11/2022","Venta al Público",NA,1.849,1.909,NA,NA,NA,NA,NA,1.759,1.869
"314",314,"ALICANTE","CALPE","AVENIDA DIPUTACION, 35","Derecho","L-D: 24H",38.646306,0.04175,"GASEXPRESS","18/11/2022","17/11/2022","Venta al Público",NA,1.799,NA,NA,NA,NA,NA,NA,1.729,NA
"315",315,"ALICANTE","CALPE","AVINGUDA VALL DE LAGUART, 5","Derecho","L-D: 24H",38.64575,0.051139,"AUTOFUEL LOW COST","18/11/2022","17/11/2022","Venta al Público",NA,1.799,NA,NA,NA,NA,NA,NA,1.729,NA
"316",316,"ALICANTE","CALPE","AVENIDA AV DIPUTACION S/N,","N","L-D: 24H",38.646306,0.040556,"Q8","18/11/2022","18/11/2022","Venta al Público",NA,1.799,1.869,NA,NA,NA,NA,NA,1.719,1.879
"317",317,"ALICANTE","CALPE","AVENIDA VALL DE L'AGUART, 11","N","L-D: 07:00-22:00",38.645694,0.052306,"DRZ","18/11/2022","18/11/2022","Venta al Público",NA,1.861,NA,NA,NA,NA,NA,NA,1.793,2.029
"318",318,"ALICANTE","CALPE","AVENIDA DEL PORT, 15/41","N","L-V: 08:30-13:30 y 15:00-19:00",38.637306,0.06925,"COFRADIA DE PESCADORES","18/11/2022","17/11/2022","Venta al Público",NA,1.879,1.979,NA,NA,1.028,NA,NA,1.769,NA
"319",319,"ALICANTE","CAMPELLO (EL)","CARRETERA N-332 KM. 122","Derecho","L: 06:00-22:00",38.450167,-0.373611,"PETRONOR","18/11/2022","18/11/2022","Venta al Público",NA,1.899,1.949,NA,NA,NA,NA,NA,1.769,1.889
"320",320,"ALICANTE","CAMPELLO (EL)","CALLE SAN BARTOLOME, 33","N","L-D: 06:00-22:00",38.418806,-0.393167,"GALP","18/11/2022","18/11/2022","Venta al Público",NA,1.899,1.989,NA,NA,NA,NA,NA,1.799,1.939
"321",321,"ALICANTE","CAMPELLO (EL)","C/ SAN RAMON, 109","Izquierdo","L-D: 24H",38.430639,-0.399389,"SHELL","18/11/2022","18/11/2022","Venta al Público",NA,1.899,1.959,NA,NA,NA,NA,NA,1.809,1.959
"322",322,"ALICANTE","CAMPELLO (EL)","CARRETERA N-332 KM. 122,5","Izquierdo","L-V: 07:00-21:00; S-D: 08:00-21:00",38.450278,-0.374361,"REPSOL","18/11/2022","18/11/2022","Venta al Público",NA,1.899,1.949,NA,NA,NA,NA,1.069,1.769,1.889
"323",323,"ALICANTE","CAMPELLO (EL)","CALLE SAN RAMON 8,","Derecho","L-D: 06:30-22:00",38.424639,-0.406444,"REPSOL-RIO SECO","18/11/2022","17/11/2022","Venta al Público",NA,1.889,1.939,NA,NA,NA,NA,NA,1.789,NA
"324",324,"ALICANTE","CAMPELLO (EL)","CALLE SAN RAMON, 125","Derecho","L-D: 24H",38.4325,-0.397194,"GASEXPRESS CAMPELLO","18/11/2022","16/11/2022","Venta al Público",NA,1.799,NA,NA,NA,NA,NA,NA,1.659,NA
"325",325,"ALICANTE","CAMPELLO (EL)","CALLE INFANTA, 31","N","L-J: 06:00-22:00; V: 06:00-23:00; S-D: 07:00-23:00",38.424083,-0.401389,"CAMPELLO - GOTETA II","18/11/2022","18/11/2022","Venta al Público",NA,1.889,1.949,NA,NA,NA,NA,NA,1.789,NA
"326",326,"ALICANTE","CASTALLA","CARRETERA CASTALLA ALICANTE, CV 815 KM. 5,7","N","L-D: 06:00-22:00",38.57825,-0.654917,"REPSOL","18/11/2022","18/11/2022","Venta al Público",NA,1.899,1.989,NA,NA,1.599,NA,NA,1.799,1.949
"327",327,"ALICANTE","CASTALLA","AVENIDA DE IBI, 46","Derecho","L-D: 06:00-22:00",38.600944,-0.669611,"REPSOL","18/11/2022","18/11/2022","Venta al Público",NA,1.919,2.019,NA,NA,NA,NA,NA,1.809,1.929
"328",328,"ALICANTE","CASTALLA","CALLE SAN VICENTE DEL RASPEIG, 4","Derecho","L-D: 24H",38.596361,-0.663889,"MASOIL CASTALLA","18/11/2022","16/11/2022","Venta al Público",NA,1.889,NA,NA,NA,NA,NA,NA,1.789,NA
"329",329,"ALICANTE","CATRAL","PURISIMA, 80","Izquierdo","L-D: 06:00-22:00",38.167583,-0.803306,"BRIOGAS","18/11/2022","17/11/2022","Venta al Público",NA,1.889,1.969,NA,NA,1.549,NA,NA,1.799,1.899
"330",330,"ALICANTE","CATRAL","CARRETERA CATRAL- CALLOSA DEL SEGURA KM. 5,3","Izquierdo","L-D: 24H",38.148111,-0.828444,"GASEXPRESS","18/11/2022","17/11/2022","Venta al Público",NA,1.799,NA,NA,NA,NA,NA,NA,1.729,NA
"331",331,"ALICANTE","CAÑADA","CALLE BIAR, 1","Derecho","L-D: 24H",38.675278,-0.804917,"COOPERATIVA SAN CRISTOBAL","18/11/2022","14/11/2022","CERRADA AL PUBLICO GENERAL",NA,1.875,NA,NA,NA,1.539,NA,NA,NA,NA
"332",332,"ALICANTE","COCENTAINA","AVENIDA AVDA. L'ALTET Nº 2, 2","N","L-D: 24H",38.730639,-0.443278,"CARREFOUR","18/11/2022","18/11/2022","Venta al Público",NA,1.919,1.959,NA,NA,NA,NA,NA,1.759,1.899
"333",333,"ALICANTE","COCENTAINA","CL AVENIDA PAIS VALENCIA, 117","Derecho","L-D: 06:00-22:00",38.738722,-0.439694,"REPSOL","18/11/2022","18/11/2022","Venta al Público",NA,1.939,2.039,NA,NA,NA,NA,NA,1.769,1.889
"334",334,"ALICANTE","COCENTAINA","AVENIDA AVENIDA DE ALICANTE, 104","Derecho","L-D: 24H",38.715167,-0.463167,"GALP","18/11/2022","18/11/2022","Venta al Público",NA,1.849,NA,NA,NA,NA,NA,NA,1.709,NA
"335",335,"ALICANTE","COCENTAINA","AVENIDA DE ALICANTE, 87","Izquierdo","L-D: 06:00-22:00",38.715472,-0.463639,"GALP","18/11/2022","18/11/2022","Venta al Público",NA,1.894,1.964,NA,NA,NA,NA,NA,1.769,1.909
"336",336,"ALICANTE","COCENTAINA","AVENIDA ALTET L', 3","Derecho","L-D: 24H",38.733333,-0.441806,"SHELL","18/11/2022","16/11/2022","Venta al Público",NA,1.899,NA,NA,NA,NA,NA,NA,1.759,NA
"337",337,"ALICANTE","COCENTAINA","AVENIDA ALICANTE, 49","Derecho","L-D: 06:00-22:00",38.717889,-0.45775,"REPSOL","18/11/2022","18/11/2022","Venta al Público",NA,1.939,2.039,NA,NA,NA,NA,NA,1.779,1.899
"338",338,"ALICANTE","COCENTAINA","AVENIDA ALACANT, 64","Derecho","L-D: 24H",38.717972,-0.458722,"LA 23","18/11/2022","17/11/2022","Venta al Público",NA,1.819,NA,NA,NA,NA,NA,NA,1.677,NA
"339",339,"ALICANTE","COX","AVENIDA DEL CARMEN, 94","Izquierdo","L-D: 06:00-22:00",38.147139,-0.889278,"REPSOL","18/11/2022","18/11/2022","Venta al Público",NA,1.899,1.979,NA,NA,NA,NA,NA,1.769,1.889
"340",340,"ALICANTE","COX","PARAJE DE SAN ISIDRO, S/Nº","N","L-S: 05:00-22:00; D: 07:00-22:00",38.141528,-0.899639,"PEPE RAMON","18/11/2022","17/11/2022","Venta al Público",NA,1.889,NA,NA,NA,NA,NA,NA,1.759,NA
"341",341,"ALICANTE","COX","PASEO PRINCIPE DE ASTURIAS, S/N","N","L-D: 06:00-22:00",38.143889,-0.898861,"BP COX","18/11/2022","18/11/2022","Venta al Público",NA,1.899,1.989,NA,NA,NA,NA,NA,1.779,1.921
"342",342,"ALICANTE","CREVILLENT","CR CV-875 ,P.K. 10,5","Izquierdo","L-D: 24H",38.233111,-0.791083,"REPSOL","18/11/2022","18/11/2022","Venta al Público",NA,1.919,2.019,NA,NA,NA,NA,1.099,1.789,1.949
"343",343,"ALICANTE","CREVILLENT","P. DE ELCHE, Nº 29-31","Izquierdo","L-V: 06:00-22:00; S: 06:00-14:00",38.249167,-0.798056,"MOSCARDÓ","18/11/2022","18/11/2022","Venta al Público",NA,1.919,1.999,NA,NA,1.589,NA,NA,1.779,1.909
"344",344,"ALICANTE","CREVILLENT","CARRETERA NACIONAL 340 KM. 707,1","Derecho","L-D: 07:00-22:00",38.227222,-0.822528,"REPSOL","18/11/2022","18/11/2022","Venta al Público",NA,1.919,1.969,NA,NA,1.597,NA,NA,1.779,1.909
"345",345,"ALICANTE","CREVILLENT","AUTOVIA A-37 KM. 728,2","Derecho","L-D: 00:00-23:59",38.193028,-0.812639,"REPSOL","18/11/2022","18/11/2022","Venta al Público",NA,1.909,1.969,NA,NA,NA,NA,NA,1.779,1.899
"346",346,"ALICANTE","CREVILLENT","AUTOVIA A-37 KM. 728","Izquierdo","L-D: 24H",38.196472,-0.812333,"REPSOL","18/11/2022","18/11/2022","Venta al Público",NA,1.909,1.959,NA,NA,NA,NA,1.099,1.769,1.879
"347",347,"ALICANTE","CREVILLENT","POLIGONO I7, SN","N","L-S: 06:00-22:00",38.250861,-0.782583,"BP","18/11/2022","18/11/2022","Venta al Público",NA,1.929,2.009,NA,NA,NA,NA,NA,1.789,1.919
"348",348,"ALICANTE","CREVILLENT","P. DE ELCHE, Nº 29-31","Derecho","L-D: 24H",38.248694,-0.797861,"MOSCARDÓ","18/11/2022","18/11/2022","Venta al Público",NA,1.919,1.999,NA,NA,NA,NA,NA,1.779,1.909
"349",349,"ALICANTE","CREVILLENT","POLIGONO I PARCELA 10, S/N","N","L-V: 06:00-22:00; S-D: 07:00-22:00",38.244333,-0.797861,"BP  POLIGONO CREVILLENTE","18/11/2022","18/11/2022","Venta al Público",NA,1.919,2.009,NA,NA,NA,NA,NA,1.799,1.941
"350",350,"ALICANTE","CREVILLENT","CR N-340, 707,0","Izquierdo","L-D: 24H",38.231556,-0.81975,"H.S","18/11/2022","16/11/2022","Venta al Público",NA,NA,1.923,NA,NA,NA,NA,NA,1.815,NA
"351",351,"ALICANTE","CREVILLENT","AUTOVIA A7 KM. 526","Derecho","L-D: 24H",38.233167,-0.791,"HAM","18/11/2022","14/11/2022","Venta al Público",NA,NA,NA,1.379,1.299,NA,NA,NA,NA,NA
"352",352,"ALICANTE","CREVILLENT","PASEO DE ELCHE, 7","Derecho","L-D: 24H",38.248167,-0.801139,"PLENOIL","18/11/2022","18/11/2022","Venta al Público",NA,1.745,NA,NA,NA,NA,NA,NA,1.597,NA
"353",353,"ALICANTE","DENIA","CTRA. LAS MARINAS km 0,85","Derecho","L-D: 06:00-22:00",38.848333,0.099722,"MOSCARDÓ","18/11/2022","18/11/2022","Venta al Público",NA,1.889,1.979,NA,NA,NA,NA,NA,1.819,1.979
"354",354,"ALICANTE","DENIA","CALLE AVENIDA VALENCIA, 44","Derecho","L-D: 24H",38.839583,0.098194,"REPSOL","18/11/2022","18/11/2022","Venta al Público",NA,1.899,1.999,NA,NA,NA,NA,NA,1.829,1.989
"355",355,"ALICANTE","DENIA","CARRETERA DENIA A ONDARA C-3311 KM. 0,5","N","L-D: 06:00-22:00",38.839,0.094417,"GALP","18/11/2022","17/11/2022","Venta al Público",NA,1.894,1.964,NA,NA,NA,NA,NA,NA,1.969
"356",356,"ALICANTE","DENIA","PARTIDA MADRIGUERES SUD, 61","Derecho","L-D: 24H",38.835694,0.09375,"REPSOL COMERCIAL","18/11/2022","18/11/2022","Venta al Público",NA,1.895,NA,NA,NA,NA,NA,NA,1.839,NA
"357",357,"ALICANTE","DENIA","AVENIDA MONTGO, 34","N","L-D: 06:00-23:00",38.832667,0.102111,"BP","18/11/2022","18/11/2022","Venta al Público",NA,1.909,1.999,NA,NA,NA,NA,NA,1.819,1.999
"358",358,"ALICANTE","DENIA","PARTIDA MADRIGUERES SUD, 25","Derecho","L-D: 24H",38.837306,0.084556,"TECKMAR","18/11/2022","16/11/2022","Venta al Público",NA,1.878,NA,NA,NA,NA,NA,NA,1.788,NA
"359",359,"ALICANTE","DENIA","CAMINO SANTA LLÚCIA, 1","N","L-D: 24H",38.834083,0.113222,"SHELL","18/11/2022","18/11/2022","Venta al Público",NA,1.839,NA,NA,NA,NA,NA,NA,1.769,NA
"360",360,"ALICANTE","DENIA","PARTIDA PARTIDA MADRIGUERES SUD, 5 - PARKING HIPERMERCADO CARREFOUR DENIA,","N","L-S: 07:00-22:00; D: 08:00-22:00",38.836917,0.095056,"Q8","18/11/2022","18/11/2022","Venta al Público",NA,1.889,1.959,NA,NA,NA,NA,NA,1.794,1.944
"361",361,"ALICANTE","DENIA","CARRETERA LAS MARINAS KM. 177","Derecho","L-D: 24H",38.858444,0.056806,"GASDEN","18/11/2022","14/11/2022","Venta al Público",NA,1.878,NA,NA,NA,NA,NA,1.099,1.788,NA
"362",362,"ALICANTE","DOLORES","CARRETERA CV905 KM. 0,800","Izquierdo","L-D: 06:00-22:00",38.131278,-0.775194,"MAYAYO","18/11/2022","17/11/2022","Venta al Público",NA,1.889,1.959,NA,NA,1.549,NA,NA,1.779,1.879
"363",363,"ALICANTE","DOLORES","CARRETERA AP-3061 KM. 15,5","Derecho","L-V: 07:00-20:00",38.140889,-0.748556,"CEPSA","18/11/2022","18/11/2022","Venta al Público",NA,1.899,1.999,NA,NA,1.549,NA,NA,1.774,1.906
"364",364,"ALICANTE","DOLORES","CALLE MAESTRO SERRANO, 1","Derecho","L-V: 07:00-21:00; S: 08:00-21:00; D: 08:00-20:00",38.139722,-0.774889,"REPSOL","18/11/2022","17/11/2022","Venta al Público",NA,1.899,1.989,NA,NA,NA,NA,NA,1.819,1.989
"365",365,"ALICANTE","ELCHE/ELX","CALLE SANTIAGO RAMON Y CAJAL, 35","Derecho","L-V: 06:00-22:00; S: 07:00-14:00",38.296528,-0.614861,"CONFORT AUTO","18/11/2022","18/11/2022","Venta al Público",NA,1.919,1.999,NA,NA,NA,NA,NA,1.789,1.928
"366",366,"ALICANTE","ELCHE/ELX","PARTIDA ALTABIX POLIGONO 3   (CAMINO DE CASTILLA), 37","Derecho","L-D: 06:30-22:00",38.29325,-0.675417,"ABIERTO (SERVICIO ATENDIDO)","18/11/2022","18/11/2022","Venta al Público",NA,1.889,1.889,NA,NA,NA,NA,NA,1.789,1.919
"367",367,"ALICANTE","ELCHE/ELX","AV DE NOVELDA, 128","Izquierdo","L-D: 06:00-22:00",38.278306,-0.716694,"REPSOL","18/11/2022","18/11/2022","Venta al Público",NA,1.919,1.999,NA,NA,NA,NA,NA,1.809,1.929
"368",368,"ALICANTE","ELCHE/ELX","CARRETERA DOLORES DE KM. 8,3","Derecho","L-V: 07:00-21:00; S-D: 07:00-20:00",38.177111,-0.702111,"REPSOL","18/11/2022","18/11/2022","Venta al Público",NA,1.889,1.989,NA,NA,1.579,NA,NA,1.769,NA
"369",369,"ALICANTE","ELCHE/ELX","Avda. de la Libertad - Salida N-340 (Crevillente)","N","L-D: 06:00-22:00",38.260389,-0.71825,"GALP","18/11/2022","18/11/2022","Venta al Público",NA,1.844,1.884,NA,NA,NA,NA,NA,1.749,1.889
"370",370,"ALICANTE","ELCHE/ELX","CARRETERA N-340A KM. 716,3","Izquierdo","L-D: 24H",38.258694,-0.734333,"CEPSA","18/11/2022","18/11/2022","Venta al Público",NA,1.845,NA,NA,NA,NA,NA,NA,1.714,NA
"371",371,"ALICANTE","ELCHE/ELX","C/ SOR JOSEFA ALCORTA 71 (ESQ.CTRA.CIRCUNVALACIÓN","N","L-D: 06:00-00:00",38.2525,-0.703056,"SHELL","18/11/2022","18/11/2022","Venta al Público",NA,1.819,1.899,NA,NA,NA,NA,NA,1.719,1.859
"372",372,"ALICANTE","ELCHE/ELX","CARRETERA N-340 KM. 714,1","Izquierdo","L-S: 06:00-22:00; D: 08:00-18:00",38.256778,-0.74775,"REPSOL","18/11/2022","18/11/2022","Venta al Público",NA,1.919,1.999,NA,NA,NA,NA,NA,1.789,1.929
"373",373,"ALICANTE","ELCHE/ELX","CARRETERA CV-8500 KM. 3,6","Izquierdo","L-J: 00:00-02:00 y 06:00-23:59; V-S: 00:00-23:59; D: 00:00-02:00 y 06:00-23:59",38.251028,-0.698306,"REPSOL","18/11/2022","18/11/2022","Venta al Público",NA,1.919,1.999,NA,NA,NA,NA,1.099,1.795,1.935
"374",374,"ALICANTE","ELCHE/ELX","PARTIDA LA MARINA, 307","Izquierdo","L-D: 07:00-23:00",38.143611,-0.664417,"MARINA DE LA PLANA","18/11/2022","16/11/2022","Venta al Público",NA,1.889,1.979,NA,NA,NA,NA,NA,1.789,1.929
"375",375,"ALICANTE","ELCHE/ELX","CALLE MIGUEL SERVET, 4","N","L-V: 06:30-22:30; S: 06:30-20:30; D: 08:00-16:00",38.298056,-0.614472,"SHELL","18/11/2022","18/11/2022","Venta al Público",NA,1.929,2.019,NA,NA,NA,NA,NA,1.809,1.969
"376",376,"ALICANTE","ELCHE/ELX","CARRETERA ALICANTE - MURCIA KM. 53","N","L-D: 24H",38.258583,-0.73025,"CARREFOUR","18/11/2022","18/11/2022","Venta al Público",NA,1.889,1.929,NA,NA,NA,NA,NA,1.779,1.929
"377",377,"ALICANTE","ELCHE/ELX","CAMINO CAMINO VIEJO ELCHE/SANTA-POLA KM 0,200, 72","Izquierdo","L-D: 06:00-22:00",38.257917,-0.678278,"REPSOL","18/11/2022","18/11/2022","Venta al Público",NA,1.919,1.999,NA,NA,NA,NA,NA,1.809,1.939
"378",378,"ALICANTE","ELCHE/ELX","CL AVENIDA DE ALICANTE, 72","Derecho","L-V: 06:00-22:00; S-D: 07:00-22:00",38.269472,-0.682194,"REPSOL","18/11/2022","18/11/2022","Venta al Público",NA,1.909,2.009,NA,NA,NA,NA,NA,1.789,1.929
"379",379,"ALICANTE","ELCHE/ELX","RONDA VALL D'UIXO, 52","Derecho","L-D: 24H",38.283917,-0.714278,"PETROPRIX","18/11/2022","18/11/2022","Venta al Público",NA,1.749,NA,NA,NA,NA,NA,NA,1.629,NA
"380",380,"ALICANTE","ELCHE/ELX","CALLE ECUADOR, 8","Derecho","L-D: 24H",38.263583,-0.7235,"EL CANARI","18/11/2022","18/11/2022","Venta al Público",NA,1.746,NA,NA,NA,NA,NA,NA,1.667,NA
"381",381,"ALICANTE","ELCHE/ELX","CALLE PANAMA, 5","Derecho","L-D: 24H",38.261528,-0.718056,"E.S. PLUSOIL","18/11/2022","17/11/2022","Venta al Público",NA,1.759,NA,NA,NA,NA,NA,NA,1.665,NA
"382",382,"ALICANTE","ELCHE/ELX","CALLE ALMANSA, 19","Derecho","L-D: 24H",38.281083,-0.713389,"PLENOIL","18/11/2022","18/11/2022","Venta al Público",NA,1.759,NA,NA,NA,NA,NA,NA,1.629,NA
"383",383,"ALICANTE","ELCHE/ELX","CALLE PETRER, 7","N","L-V: 07:00-22:00; S-D: 08:00-14:00",38.277806,-0.718417,"GASOLINERA D'ELX (S. ATENDIDO)","18/11/2022","17/11/2022","Venta al Público",NA,1.765,1.765,NA,NA,NA,NA,NA,1.665,1.855
"384",384,"ALICANTE","ELCHE/ELX","AVINGUDA DE CREVILLENTE, 4","N","L-V: 07:00-22:00; S: 08:00-22:00; D: 08:00-21:30",38.261444,-0.717444,"GASOLINERA D'ELX (S. ATENDIDO)","18/11/2022","17/11/2022","Venta al Público",NA,1.765,1.765,NA,NA,NA,NA,NA,1.665,NA
"385",385,"ALICANTE","ELCHE/ELX","PARTIDA ALTABIX.POL. 1 NO 203 (AV DEL BIMILENARIO S/N)","N","L-D: 24H",38.283139,-0.684083,"BP LA GALIA","18/11/2022","17/11/2022","Venta al Público",NA,1.915,2.005,NA,NA,NA,NA,NA,1.789,1.929
"386",386,"ALICANTE","ELCHE/ELX","CALLE ECUADOR, 12","Derecho","L-D: 07:00-23:00",38.264139,-0.72375,"BP ALJUB","18/11/2022","17/11/2022","Venta al Público",NA,1.915,2.005,NA,NA,NA,NA,NA,1.789,1.929
"387",387,"ALICANTE","ELCHE/ELX","CALLE ALGORFA, 2","Derecho","L-D: 06:00-23:00",38.273778,-0.665417,"BP SAN ANTON","18/11/2022","17/11/2022","Venta al Público",NA,1.919,2.009,NA,NA,NA,NA,NA,1.793,1.929
"388",388,"ALICANTE","ELCHE/ELX","AVENIDA ANTONIO MACHADO, 51","N","L-J: 06:30-23:00; V: 06:30-23:59; S: 07:00-23:59; D: 07:00-23:00",38.261861,-0.708806,"MORA","18/11/2022","17/11/2022","Venta al Público",NA,1.909,1.979,NA,NA,NA,NA,NA,1.799,1.929
"389",389,"ALICANTE","ELCHE/ELX","CALLE SENIJA, 2","Derecho","L-D: 24H",38.282583,-0.712472,"BALLENOIL","18/11/2022","18/11/2022","Venta al Público",NA,1.749,NA,NA,NA,NA,NA,NA,1.639,NA
"390",390,"ALICANTE","ELCHE/ELX","CALLE ALICANTE-ALTET, 122","Derecho","L-D: 24H",38.271583,-0.673944,"PLENOIL","18/11/2022","18/11/2022","Venta al Público",NA,1.797,NA,NA,NA,NA,NA,NA,1.689,NA
"391",391,"ALICANTE","ELCHE/ELX","CALLE ALMANSA, 62","N","L-J: 06:00-23:00; V-S: 06:00-23:59; D: 06:30-23:00",38.278972,-0.719639,"MORA","18/11/2022","17/11/2022","Venta al Público",NA,1.919,1.989,NA,NA,NA,NA,NA,1.799,1.909
"392",392,"ALICANTE","ELCHE/ELX","AVENIDA ALCALDE VICENTE QUILES, 4","Derecho","L-D: 06:00-23:00",38.2725,-0.690833,"LA ESTACION","18/11/2022","18/11/2022","Venta al Público",NA,1.817,1.909,NA,NA,NA,NA,NA,1.712,1.856
"393",393,"ALICANTE","ELCHE/ELX","CALLE MALLORCA, 12","N","L-J: 06:30-23:00; V: 06:30-23:59; S: 07:00-23:59; D: 07:00-23:00",38.269944,-0.67075,"E.S. EL POLIGONO","18/11/2022","17/11/2022","Venta al Público",NA,1.909,1.999,NA,NA,NA,NA,NA,1.779,1.909
"394",394,"ALICANTE","ELCHE/ELX","CALLE GALILEO GALILEI, 14","Derecho","L: 24H",38.288139,-0.611667,"GM OIL ELCHE","18/11/2022","18/11/2022","Venta al Público",NA,1.749,NA,NA,NA,NA,NA,NA,1.629,NA
"395",395,"ALICANTE","ELCHE/ELX","AVENIDA NOVELDA, 188","Derecho","L-V: 06:00-22:00; S-D: 07:00-15:00",38.282778,-0.721944,"MORA","18/11/2022","17/11/2022","Venta al Público",NA,1.919,1.989,NA,NA,NA,NA,NA,1.799,1.909
"396",396,"ALICANTE","ELCHE/ELX","CALLE ALCORCÓN, 27","Derecho","L-D: 24H",38.263639,-0.723694,"PLENOIL","18/11/2022","18/11/2022","Venta al Público",NA,1.747,NA,NA,NA,NA,NA,NA,1.629,NA
"397",397,"ALICANTE","ELDA","AVENIDA MEDITERRANEO, S/N","N","L-D: 06:00-22:00",38.460056,-0.782528,"CEPSA","18/11/2022","16/11/2022","Venta al Público",NA,1.85,1.916,NA,NA,NA,NA,1.014,1.714,1.846
"398",398,"ALICANTE","ELDA","CALLE ROMERO,2 - AVDA. LIBERTAD, S/N","N","L-D: 06:00-22:00",38.491972,-0.795194,"CEPSA","18/11/2022","18/11/2022","Venta al Público",NA,1.899,1.965,NA,NA,NA,NA,NA,1.769,NA
"399",399,"ALICANTE","ELDA","CARRETERA C-3213 KM. 15,700","Izquierdo","L-D: 06:00-22:00",38.473944,-0.80475,"REPSOL","18/11/2022","18/11/2022","Venta al Público",NA,1.899,1.959,NA,NA,NA,NA,NA,1.769,1.889
"400",400,"ALICANTE","ELDA","AVENIDA MEDITERRANEO, 16","N","L-D: 24H",38.467333,-0.78775,"SHELL","18/11/2022","18/11/2022","Venta al Público",NA,1.85,1.93,NA,NA,NA,NA,NA,1.714,1.854
"401",401,"ALICANTE","ELDA","CALLE MEDICO FEDERICO MARTINEZ PEREZ, 1","Derecho","L-D: 24H",38.464944,-0.785361,"GASEXPRESS","18/11/2022","17/11/2022","Venta al Público",NA,1.809,NA,NA,NA,NA,NA,NA,1.669,NA
"402",402,"ALICANTE","ELDA","POLIGONO CL ITALIA, ESQUINA CL IRLANDA PARC., 32","N","L-D: 24H",38.461722,-0.816472,"BDMED ELDA","18/11/2022","18/11/2022","Venta al Público",NA,1.849,NA,NA,NA,NA,NA,NA,1.729,NA
"403",403,"ALICANTE","ELDA","AVENIDA CENTRO EXCURSIONISTA, S/N","Derecho","L-D: 06:00-22:00",38.470083,-0.80625,"REPSOL","18/11/2022","18/11/2022","Venta al Público",NA,1.899,1.959,NA,NA,NA,NA,NA,1.769,1.889
"404",404,"ALICANTE","ELDA","CARRETERA CTRA.ELDA-MONOVAR KM 13 KM. 13","N","L-D: 06:00-22:00",38.450306,-0.812833,"V2 GASOLINERAS","18/11/2022","17/11/2022","Venta al Público",NA,1.829,NA,NA,NA,NA,NA,NA,1.759,NA
"405",405,"ALICANTE","ELDA","CALLE CONDES DE ELDA, SN","Derecho","L-D: 06:00-22:00",38.484944,-0.810639,"REPOSTANDO","18/11/2022","18/11/2022","Venta al Público",NA,1.809,1.909,NA,NA,NA,NA,NA,1.699,1.799
"406",406,"ALICANTE","ERMITA (LA)","CALLE MARINERS DE LA VILAJOIOSA, 2","N","L-D: 24H",38.530917,-0.171917,"GASEXPRESS","18/11/2022","18/11/2022","Venta al Público",NA,1.789,NA,NA,NA,NA,NA,NA,1.719,NA
"407",407,"ALICANTE","FINESTRAT","AVENIDA PAIS VALENCIA, 20","N","L-D: 07:00-23:00",38.536444,-0.180222,"ZARCAR","18/11/2022","18/11/2022","Venta al Público",NA,1.879,1.979,NA,NA,NA,NA,NA,1.799,1.959
"408",408,"ALICANTE","FINESTRAT","CARRETERA NUEVA FINESTRATA LA CALA KM. 5","N","L-D: 24H",38.537389,-0.175167,"CARREFOUR","18/11/2022","18/11/2022","Venta al Público",NA,1.909,1.949,NA,NA,NA,NA,NA,1.829,1.989
"409",409,"ALICANTE","FINESTRAT","AVENIDA FEDERICO GARCIA LORCA, 21","Derecho","L-D: 06:00-22:00",38.538722,-0.172889,"REPSOL","18/11/2022","18/11/2022","Venta al Público",NA,1.909,2.009,NA,NA,NA,NA,NA,1.829,1.989
"410",410,"ALICANTE","FINESTRAT","AVENIDA AUXIAS MARCH, SN","Derecho","L-D: 07:00-23:00",38.534806,-0.16975,"CEPSA","18/11/2022","15/11/2022","Venta al Público",NA,1.909,1.989,NA,NA,NA,NA,NA,1.809,1.889
"411",411,"ALICANTE","FINESTRAT","AVENIDA PICASSO, 3","N","L-D: 24H",38.533722,-0.17275,"REPSOL","18/11/2022","18/11/2022","Venta al Público",NA,1.899,1.999,NA,NA,NA,NA,NA,1.819,1.969
"412",412,"ALICANTE","FINESTRAT","AVENIDA PICASSO, 41","Derecho","L-D: 24H",38.533194,-0.172639,"PETROPRIX","18/11/2022","18/11/2022","Venta al Público",NA,1.789,NA,NA,NA,NA,NA,NA,1.719,NA
"413",413,"ALICANTE","FINESTRAT","AVENIDA MIGUEL HERNÁNDEZ, 11","Derecho","L-D: 24H",38.539417,-0.170444,"GM OIL","18/11/2022","18/11/2022","Venta al Público",NA,1.789,NA,NA,NA,NA,NA,NA,1.709,NA
"414",414,"ALICANTE","FONT-CALENT","CARRETERA N-330 A KM. 401","Izquierdo","L-V: 07:00-21:00; S: 08:00-14:00",38.342361,-0.607083,"PETRONOR","18/11/2022","16/11/2022","Venta al Público",NA,1.889,1.959,NA,NA,NA,NA,NA,1.769,1.899
"415",415,"ALICANTE","FORMENTERA DEL SEGURA","CALLE ACEQUIA DEL RIO, 37","Izquierdo","L-D: 06:00-22:00",38.087889,-0.730694,"BP LOS PALACIOS","18/11/2022","17/11/2022","Venta al Público",NA,1.954,2.044,NA,NA,NA,NA,NA,1.833,1.976
"416",416,"ALICANTE","FORMENTERA DEL SEGURA","POLIGONO LOS NAZARIOS, C/LOS NAZARIOS, 8","N","L-D: 06:30-22:30",38.087611,-0.736889,"GASOLINERA DE FORMENTERA","18/11/2022","18/11/2022","Venta al Público",NA,1.799,1.869,NA,NA,NA,NA,NA,1.719,NA
"417",417,"ALICANTE","GATA DE GORGOS","CARRETERA N-332 KM. 187,5","Derecho","L-D: 07:00-21:00",38.768111,0.098639,"REPSOL","18/11/2022","18/11/2022","Venta al Público",NA,1.889,1.969,NA,NA,NA,NA,NA,1.789,NA
"418",418,"ALICANTE","GRANJA DE ROCAMORA","AVENIDA JUAN CARLOS I, S/N","N","L-D: 24H",38.156,-0.889806,"GALP","18/11/2022","18/11/2022","Venta al Público",NA,1.884,1.954,NA,NA,NA,NA,NA,1.764,NA
"419",419,"ALICANTE","GRANJA DE ROCAMORA","CALLE RIO EBRO, 1","N","L-D: 00:00-23:59",38.154389,-0.882139,"JOSBERFUEL","18/11/2022","14/11/2022","Venta al Público",NA,1.899,NA,NA,NA,NA,NA,NA,1.759,NA
"420",420,"ALICANTE","GUARDAMAR DEL SEGURA","PARTIDA LA REDONDA, S/N","Derecho","L-D: 06:00-23:00",38.094028,-0.66075,"GÓMEZ Y SIRVENT","18/11/2022","16/11/2022","Venta al Público",NA,1.889,1.979,NA,NA,NA,NA,NA,1.789,1.929
"421",421,"ALICANTE","GUARDAMAR DEL SEGURA","CL MADRID, 20-24","Derecho","L-D: 07:00-23:00",38.095639,-0.659111,"REPSOL","18/11/2022","18/11/2022","Venta al Público",NA,1.879,1.979,NA,NA,NA,NA,1.099,1.769,1.919
"422",422,"ALICANTE","GUARDAMAR DEL SEGURA","CARRETERA CV 895 KM. 5,1","Derecho","L-S: 07:00-21:30; D: 08:00-17:00",38.062278,-0.673472,"CEPSA","18/11/2022","17/11/2022","Venta al Público",NA,1.899,1.999,NA,NA,1.599,NA,NA,1.799,NA
"423",423,"ALICANTE","GUARDAMAR DEL SEGURA","CARRETERA NACIONAL 332 KM. 65,968","Izquierdo","L-D: 07:00-23:00",38.045,-0.659222,"CEPSA","18/11/2022","18/11/2022","Venta al Público",NA,1.909,2.009,NA,NA,NA,NA,NA,1.774,NA
"424",424,"ALICANTE","GUARDAMAR DEL SEGURA","CARRETERA N-332 KM. 32,7","Izquierdo","L-D: 06:30-00:00",38.099472,-0.663861,"REPSOL","18/11/2022","15/11/2022","Venta al Público",NA,1.919,2.019,NA,NA,NA,NA,1.139,1.839,1.959
"425",425,"ALICANTE","GUARDAMAR DEL SEGURA","CARRETERA N-332 KM. 32,7","Derecho","L-D: 06:30-22:30",38.099333,-0.664444,"REPSOL","18/11/2022","17/11/2022","Venta al Público",NA,1.889,1.979,NA,NA,NA,NA,1.139,1.819,1.959
"426",426,"ALICANTE","GUARDAMAR DEL SEGURA","CALLE FORNERS, 27","Derecho","L-D: 24H",38.090917,-0.660611,"SEVEN OIL","18/11/2022","18/11/2022","Venta al Público",NA,1.829,NA,NA,NA,NA,NA,NA,1.729,NA
"427",427,"ALICANTE","HONDON DE LAS NIEVES","AVINGUDA VIRGEN DE LAS NIEVES, S/N","Derecho","L-S: 06:00-22:00",38.310167,-0.849528,"REPSOL","18/11/2022","16/11/2022","Venta al Público",NA,1.949,1.995,NA,NA,1.579,NA,NA,1.795,NA
"428",428,"ALICANTE","HONDON DE LOS FRAILES","CARRETERA CTRA. ARCHENA KM. 32","N","L-D: 06:30-21:00",38.277611,-0.920417,"SANTA CRUZ","18/11/2022","17/11/2022","Venta al Público",NA,1.929,1.979,NA,NA,NA,NA,NA,1.779,NA
"429",429,"ALICANTE","HOYA (LA)","CARRETERA CARRETERA ELCHE  LA MARINA KM. 6,7","Izquierdo","L: 06:00-23:00",38.196,-0.678611,"REPSOL","18/11/2022","18/11/2022","Venta al Público",NA,1.919,1.989,NA,NA,1.589,NA,NA,1.809,1.939
"430",430,"ALICANTE","IBI","AVENIDA LA PROVINCIA, N","Derecho","L-D: 06:00-22:00",38.616889,-0.585333,"E.S. CAÑIZARES","18/11/2022","17/11/2022","Venta al Público",NA,1.919,NA,NA,NA,1.6,NA,NA,1.789,1.9
"431",431,"ALICANTE","IBI","AVENIDA JUAN CARLOS I, 2","Izquierdo","L-S: 06:00-22:00; D: 07:00-15:00",38.626556,-0.567917,"REPSOL","18/11/2022","18/11/2022","Venta al Público",NA,1.939,2.039,NA,NA,NA,NA,NA,1.819,1.939
"432",432,"ALICANTE","IBI","CALLE LEON (POLIGONO INDUSTRIAL L ALFAÇ III, 3","N","L-D: 06:00-22:00",38.607972,-0.593472,"CEPSA","18/11/2022","10/11/2022","Venta al Público",NA,2.019,2.085,NA,NA,NA,NA,NA,1.879,NA
"433",433,"ALICANTE","IBI","AV DE LA PROVIDENCIA S/N","N","L-D: 06:00-22:00",38.6165,-0.585583,"BP IBI","18/11/2022","18/11/2022","Venta al Público",NA,1.949,2.039,NA,NA,NA,NA,NA,1.829,1.971
"434",434,"ALICANTE","IBI","CALLE CARMEN MARIN GAITE, 10","Derecho","L-D: 24H",38.614333,-0.578222,"NEFT","18/11/2022","14/11/2022","Venta al Público",NA,1.899,1.956,NA,NA,NA,NA,NA,1.756,NA
"435",435,"ALICANTE","JACARILLA","CARRETERA JACARILLA-BENEJUZAR KM. 2,5","Derecho","L-D: 24H",38.062972,-0.859028,"BP PETROBENE","18/11/2022","18/11/2022","Venta al Público",NA,1.919,1.989,NA,NA,1.589,NA,NA,1.799,NA
"436",436,"ALICANTE","JACARILLA","CARRETERA CV-95 KM. 10","Izquierdo","L-V: 07:00-19:00; S: 08:00-13:00",38.041222,-0.855611,"BP JACARILLA","18/11/2022","14/11/2022","Venta al Público",NA,1.899,NA,NA,NA,NA,NA,NA,1.739,1.919
"437",437,"ALICANTE","JALON","AVDA. GENERALITAT VALENCIANA, 4","Derecho","L: 06:00-22:00",38.738444,-0.009028,"A.ESTELA","18/11/2022","18/11/2022","Venta al Público",NA,1.899,1.979,NA,NA,1.559,NA,NA,1.779,NA
"438",438,"ALICANTE","JÁVEA/XÀBIA","AVENIDA DEL PLA, 77","Izquierdo","L-D: 07:00-23:00",38.784944,0.178667,"CEPSA","18/11/2022","18/11/2022","Venta al Público",NA,1.845,1.945,NA,NA,NA,NA,NA,1.714,NA
"439",439,"ALICANTE","JÁVEA/XÀBIA","CARRETERA CV-739 KM. 1,5","Derecho","L-D: 06:00-22:00",38.781861,0.179444,"REPSOL","18/11/2022","18/11/2022","Venta al Público",NA,1.879,1.959,NA,NA,NA,NA,1.069,1.809,1.969
"440",440,"ALICANTE","JÁVEA/XÀBIA","AVENIDA DEL PUERTO, 36","Derecho","L-D: 07:00-22:00",38.79425,0.177222,"REPSOL","18/11/2022","18/11/2022","Venta al Público",NA,1.879,1.959,NA,NA,NA,NA,NA,1.799,1.959
"441",441,"ALICANTE","JÁVEA/XÀBIA","CARRETERA JAVEA BENITACHELL KM. 7,093","N","L-D: 07:00-21:30",38.74075,0.150944,"BP","18/11/2022","17/11/2022","Venta al Público",NA,1.889,1.949,NA,NA,NA,NA,NA,1.818,1.969
"442",442,"ALICANTE","JÁVEA/XÀBIA","CARRETERA CV-734 KM. 4,6","Derecho","L-D: 06:00-22:00",38.776083,0.119861,"PETRONOR","18/11/2022","18/11/2022","Venta al Público",NA,1.889,1.969,NA,NA,NA,NA,NA,1.799,1.959
"443",443,"ALICANTE","JÁVEA/XÀBIA","AVENIDA VALENCIA, SN","Izquierdo","L-D: 06:00-22:00",38.785444,0.159972,"REPSOL","18/11/2022","18/11/2022","Venta al Público",NA,1.879,1.959,NA,NA,NA,NA,NA,1.799,1.959
"444",444,"ALICANTE","JÁVEA/XÀBIA","CARRETERA CV-739 KM. 2,9","Derecho","L-D: 06:00-22:00",38.770556,0.186361,"REPSOL","18/11/2022","18/11/2022","Venta al Público",NA,1.879,1.959,NA,NA,NA,NA,NA,1.809,1.969
"445",445,"ALICANTE","JÁVEA/XÀBIA","CALLE BRUSELAS, 4","Derecho","L-D: 24H",38.785667,0.174972,"ECO COMBUSTIBLE 24H LOW COST","18/11/2022","18/11/2022","Venta al Público",NA,1.839,NA,NA,NA,NA,NA,NA,1.689,NA
"446",446,"ALICANTE","JÁVEA/XÀBIA","AVENIDA PALMELA, 47","Derecho","L-D: 24H",38.787472,0.167583,"PLENOIL","18/11/2022","18/11/2022","Venta al Público",NA,1.745,NA,NA,NA,NA,NA,NA,1.599,NA
"447",447,"ALICANTE","JÁVEA/XÀBIA","AVENIDA DEL TRENC D'ALBA, 47","N","L-D: 24H",38.788917,0.170861,"Q8","18/11/2022","18/11/2022","Venta al Público",NA,1.849,NA,NA,NA,NA,NA,NA,1.649,NA
"448",448,"ALICANTE","MONFORTE DEL CID","AUTOVIA A-31 KM. 220","Izquierdo","L-D: 24H",38.369833,-0.704556,"CEPSA","18/11/2022","17/11/2022","Venta al Público",NA,1.919,1.989,NA,NA,NA,NA,NA,1.799,NA
"449",449,"ALICANTE","MONFORTE DEL CID","AUTOVIA A-31 KM. 216","Izquierdo","L-D: 24H",38.387917,-0.736806,"BP","18/11/2022","17/11/2022","Venta al Público",NA,1.929,2.019,NA,NA,NA,NA,NA,1.799,1.941
"450",450,"ALICANTE","MONFORTE DEL CID","CAMINO CAMINO AZAGADOR, 2","N","L-D: 06:00-00:00",38.380861,-0.723111,"COOPERATIVA V. AGRICOLA MONFORTE DEL CID","18/11/2022","17/11/2022","Venta al Público",NA,1.899,NA,NA,NA,1.595,NA,NA,NA,NA
"451",451,"ALICANTE","MONFORTE DEL CID","GLORIETA JORGE JUAN, 86","Derecho","L-S: 06:00-21:00; D: 07:00-14:00",38.376306,-0.773694,"BP","18/11/2022","18/11/2022","Venta al Público",NA,1.939,2.029,NA,NA,1.749,NA,NA,1.799,NA
"452",452,"ALICANTE","MONFORTE DEL CID","AUTOVIA A-31 KM. 220","Derecho","L-D: 24H",38.369306,-0.704611,"CEPSA","18/11/2022","17/11/2022","Venta al Público",NA,1.919,1.989,NA,NA,NA,NA,NA,1.799,NA
"453",453,"ALICANTE","MONOVAR","CARRETERA NOVELDA-MONOVAR KM. 9,6","Izquierdo","L-D: 07:00-22:00",38.428444,-0.838083,"E.S. TEXAS","18/11/2022","16/11/2022","Venta al Público",NA,1.909,1.929,NA,NA,NA,NA,NA,1.789,NA
"454",454,"ALICANTE","MONOVAR","AVENIDA COMUNIDAD VALENCIANA, SN","Derecho","L-S: 06:30-22:30; D: 08:00-21:00",38.434222,-0.839861,"PETRONOR","18/11/2022","15/11/2022","Venta al Público",NA,1.929,1.979,NA,NA,NA,NA,NA,1.789,1.899
"455",455,"ALICANTE","MONOVAR","CARRETERA CR 3213 KM. 12","Izquierdo","L-D: 06:00-22:00",38.424667,-0.940028,"REPSOL","18/11/2022","18/11/2022","Venta al Público",NA,1.909,1.959,NA,NA,1.508,NA,NA,1.769,1.879
"456",456,"ALICANTE","MONTESINOS (LOS)","CR CV-945  LO BLANC, 1,3 (A-340 km 1,36)","Izquierdo","L-D: 24H",38.029472,-0.730944,"REPSOL","18/11/2022","17/11/2022","Venta al Público",NA,1.899,1.989,NA,NA,1.599,NA,NA,1.829,1.949
"457",457,"ALICANTE","MORAIRA","CARRETERA TEULADA-CALPE KM. 6,5","Izquierdo","L-D: 06:00-22:00",38.689806,0.134806,"REPSOL","18/11/2022","18/11/2022","Venta al Público",NA,1.879,1.979,NA,NA,NA,NA,NA,1.829,1.979
"458",458,"ALICANTE","MORAIRA","CARRETERA CV-743 KM. 4","Izquierdo","L-D: 07:00-23:00",38.712056,0.130194,"CEPSA","18/11/2022","18/11/2022","Venta al Público",NA,1.899,1.999,NA,NA,NA,NA,NA,1.804,1.936
"459",459,"ALICANTE","MORALET","CARRETERA CV 820 KM. 1,3","Derecho","L-D: 06:00-22:00",38.4115,-0.565444,"REPSOL","18/11/2022","18/11/2022","Venta al Público",NA,1.899,1.979,NA,NA,NA,NA,NA,1.799,1.939
"460",460,"ALICANTE","MORALET","CARRETERA CV 820 KM. 1,4","Izquierdo","L-D: 24H",38.411,-0.565972,"AQUAVEL","18/11/2022","17/11/2022","Venta al Público",NA,1.879,1.969,NA,NA,NA,NA,NA,1.739,2.599
"461",461,"ALICANTE","MURO DEL ALCOY","CARRETERA N-340 KM. 808,6","Izquierdo","L-V: 06:00-22:00; S: 06:00-16:00",38.781889,-0.448444,"CEPSA","18/11/2022","18/11/2022","Venta al Público",NA,1.899,1.999,NA,NA,1.559,NA,NA,1.779,1.911
"462",462,"ALICANTE","MURO DEL ALCOY","CARRETERA CV 700 KM. 6","Derecho","L-D: 06:00-22:00",38.782028,-0.424694,"CEPSA","18/11/2022","18/11/2022","Venta al Público",NA,1.919,1.989,NA,NA,NA,NA,NA,1.789,NA
"463",463,"ALICANTE","MURO DEL ALCOY","CARRETERA N-340 KM. 808,6","Derecho","L-S: 07:00-22:00; D: 08:00-22:00",38.781417,-0.447889,"CEPSA","18/11/2022","18/11/2022","Venta al Público",NA,1.899,1.999,NA,NA,1.559,NA,NA,1.779,1.911
"464",464,"ALICANTE","MURO DEL ALCOY","CALLE DEL TRANSPORT, 25","Derecho","L-D: 24H",38.7795,-0.447417,"GASOLPOP,S.L.","18/11/2022","18/11/2022","Venta al Público",NA,1.819,NA,NA,NA,NA,NA,NA,1.699,NA
"465",465,"ALICANTE","MURO DEL ALCOY","AVENIDA PAIS VALENCIÀ, 40","Izquierdo","L-D: 24H",38.781611,-0.430667,".ES CARBURANTES","18/11/2022","18/11/2022","Venta al Público",NA,1.899,NA,NA,NA,NA,NA,NA,1.759,NA
"466",466,"ALICANTE","MUTXAMEL","AVENIDA ALCOY, S/N","Izquierdo","L-D: 08:00-13:00 y 16:00-19:00",38.426528,-0.450361,"CEPSA","18/11/2022","18/11/2022","Venta al Público",NA,1.899,1.979,NA,NA,1.559,NA,NA,1.769,1.901
"467",467,"ALICANTE","MUTXAMEL","PARTIDA SAN PERET, 26","N","L-D: 24H",38.4245,-0.431389,"BP","18/11/2022","18/11/2022","Venta al Público",NA,1.889,1.979,NA,NA,NA,NA,NA,1.799,1.941
"468",468,"ALICANTE","MUTXAMEL","AVENIDA ALCOY, S/N","Derecho","L-D: 06:00-22:00",38.426222,-0.449833,"CEPSA","18/11/2022","18/11/2022","Venta al Público",NA,1.899,1.979,NA,NA,1.559,NA,NA,1.769,1.901
"469",469,"ALICANTE","MUTXAMEL","CARRETERA CV 800 KM. 0,750","Izquierdo","L-D: 06:00-22:00",38.427167,-0.434583,"REPSOL","18/11/2022","16/11/2022","Venta al Público",NA,1.899,1.979,NA,NA,NA,NA,NA,1.799,1.929
"470",470,"ALICANTE","MUTXAMEL","CALLE OSSA MAJOR, 1","Derecho","L-D: 07:00-23:00",38.407,-0.463917,"BP MUCHAMIEL","18/11/2022","18/11/2022","Venta al Público",NA,1.889,1.979,NA,NA,NA,NA,NA,1.799,1.941
"471",471,"ALICANTE","NOVELDA","AVENIDA PEREZ GALDOS, 2","Derecho","L-S: 06:00-21:00; D: 07:00-15:00",38.386417,-0.758389,"REPSOL","18/11/2022","18/11/2022","Venta al Público",NA,1.929,1.989,NA,NA,NA,NA,NA,1.779,1.899
"472",472,"ALICANTE","NOVELDA","AVENIDA RIO VINALOPO, 1","N","L-D: 06:00-23:00",38.38825,-0.755694,"BP","18/11/2022","18/11/2022","Venta al Público",NA,1.939,2.029,NA,NA,NA,NA,NA,1.799,1.951
"473",473,"ALICANTE","NOVELDA","POLIGONO SANTA FE C/1 ESQUINA C/2, 1,2","N","L-V: 06:00-21:00; S: 07:00-21:00; D: 07:00-14:00",38.385639,-0.776833,"BP","18/11/2022","18/11/2022","Venta al Público",NA,1.939,2.029,NA,NA,NA,NA,NA,1.799,NA
"474",474,"ALICANTE","NOVELDA","AVENIDA JESUS NAVARRO JOVER, 13","Izquierdo","L-D: 24H",38.390028,-0.752167,"QFS","18/11/2022","15/11/2022","Venta al Público",NA,1.859,NA,NA,NA,NA,NA,NA,1.769,NA
"475",475,"ALICANTE","NOVELDA","AVENIDA REYES CATOLICOS, 152","N","L-V: 06:00-21:00; S-D: 07:00-21:00",38.376333,-0.771333,"BP INNUBEL - NOVELDA","18/11/2022","18/11/2022","Venta al Público",NA,1.939,2.029,NA,NA,NA,NA,NA,1.799,1.951
"476",476,"ALICANTE","NUCIA (LA)","CL AVENIDA MARINA BAIXA, 80","Derecho","L-D: 06:00-22:00",38.616167,-0.123944,"REPSOL","18/11/2022","18/11/2022","Venta al Público",NA,1.899,1.999,NA,NA,NA,NA,NA,1.799,1.959
"477",477,"ALICANTE","NUCIA (LA)","P.I. La Nucia - Parcela 16","N","L-D: 06:00-22:00",38.603028,-0.129556,"GALP","18/11/2022","18/11/2022","Venta al Público",NA,1.869,1.939,NA,NA,NA,NA,NA,1.759,1.889
